City,Country,Latitude,Longitude,Max Temperature (F),Humidity (%),Cloudiness (%),Wind Speed (mph),Date
Sept-Îles,CA,50.2001,-66.3821,23.0,58,15,8.05,1611788931
Nyurba,RU,63.2842,118.3319,-47.02,78,95,1.45,1611789246
Haines Junction,CA,60.7522,-137.5108,-9.4,54,83,0.2,1611788875
Hobart,AU,-42.8794,147.3294,59.0,47,75,8.05,1611788991
Butaritari,KI,3.0707,172.7902,80.2,81,82,13.24,1611789085
Castro,BR,-24.7911,-50.0119,66.74,93,100,5.1,1611789247
Chui,UY,-33.6971,-53.4616,70.56,85,43,10.13,1611789247
Avarua,CK,-21.2078,-159.775,87.8,58,75,17.27,1611789247
Meulaboh,ID,4.1363,96.1285,75.4,84,100,5.28,1611789247
Norman Wells,CA,65.282,-126.8329,-22.0,76,75,3.44,1611788882
Tiksi,RU,71.6872,128.8694,-35.39,82,99,2.13,1611789247
Esperance,AU,-33.8667,121.9,64.4,88,75,10.36,1611789069
Port Alfred,ZA,-33.5906,26.891,62.01,91,59,1.99,1611788857
Atuona,PF,-9.8,-139.0333,78.58,80,3,15.7,1611789116
Iqaluit,CA,63.7506,-68.5145,-2.2,65,1,18.41,1611789086
Vaini,TO,-21.2,-175.2,75.2,94,90,11.5,1611788863
Cap Malheureux,MU,-19.9842,57.6142,77.0,81,2,1.99,1611788933
Mataura,NZ,-46.1927,168.8643,53.01,76,97,17.0,1611789111
Ushuaia,AR,-54.8,-68.3,39.2,93,40,19.57,1611789229
Acapulco de Juárez,MX,16.8634,-99.8901,84.2,70,40,5.75,1611789076
Kahului,US,20.8947,-156.47,80.6,54,40,28.77,1611789137
East London,ZA,-33.0153,27.9116,69.35,81,78,16.17,1611788899
Arraial do Cabo,BR,-22.9661,-42.0278,77.0,78,0,16.11,1611788892
Roald,NO,62.5833,6.1333,32.0,93,90,11.5,1611788912
Kharian,PK,32.8149,73.8636,46.4,81,0,1.32,1611788934
Dhidhdhoo,MV,6.8833,73.1,80.96,67,65,10.02,1611788775
Khatanga,RU,71.9667,102.5,-30.41,80,0,7.14,1611789249
Souillac,MU,-20.5167,57.5167,73.4,88,20,8.05,1611788982
Sovetskiy,RU,61.3614,63.5842,10.45,96,100,7.18,1611788934
Rikitea,PF,-23.1203,-134.9692,79.99,73,91,11.79,1611789250
Constitución,CL,-35.3333,-72.4167,60.91,68,74,20.76,1611789118
Yellowknife,CA,62.456,-114.3525,-9.0,70,75,3.44,1611789115
Ankazobe,MG,-18.3167,47.1167,68.0,88,75,4.61,1611788935
Waipawa,NZ,-41.4122,175.5153,66.2,88,90,25.32,1611789250
Busselton,AU,-33.65,115.3333,55.0,81,0,1.99,1611789251
Jamestown,US,42.097,-79.2353,23.0,93,90,5.97,1611789251
Asău,RO,46.4333,26.4,32.0,46,100,5.55,1611789251
Mahébourg,MU,-20.4081,57.7,73.4,88,20,8.05,1611789111
Punta Arenas,CL,-53.15,-70.9167,46.4,66,75,21.85,1611788858
Botou,CN,38.0667,116.5667,23.67,61,0,10.87,1611788710
Kapaa,US,22.0752,-159.319,78.8,78,75,18.41,1611789216
Berlevåg,NO,70.8578,29.0864,26.6,63,75,24.16,1611789126
Atambua,ID,-9.1061,124.8925,75.42,88,100,4.88,1611788936
Beringovskiy,RU,63.05,179.3167,16.74,96,100,27.22,1611789125
Alta Floresta,BR,-9.8756,-56.0861,84.2,74,40,2.3,1611788888
Teya,RU,60.3778,92.6267,-29.63,81,100,1.61,1611788937
Mar del Plata,AR,-38.0023,-57.5575,66.99,59,0,9.22,1611788721
Amahai,ID,-3.3333,128.9167,86.0,77,100,5.01,1611788937
Valkeala,FI,60.9401,26.7979,32.0,100,90,4.61,1611788937
Severo-Kuril'sk,RU,50.6789,156.125,28.0,96,100,19.26,1611789252
Carnarvon,AU,-24.8667,113.6333,71.6,78,0,14.97,1611789252
Avera,US,33.194,-82.5271,57.2,86,90,3.44,1611789253
Flinders,AU,-34.5833,150.8552,71.01,72,87,3.0,1611789253
Hithadhoo,MV,-0.6,73.0833,81.41,78,98,15.88,1611789253
Siteki,SZ,-26.45,31.95,69.8,88,100,8.05,1611788938
Saint Paul Harbor,US,57.79,-152.4072,33.8,75,90,4.61,1611789253
Lebu,CL,-37.6167,-73.65,59.77,76,96,10.6,1611789253
Amsterdam,NL,52.374,4.8897,44.01,93,75,3.44,1611788939
Samarai,PG,-10.6167,150.6667,79.74,86,99,7.74,1611788939
Sudogda,RU,55.9539,40.8629,29.91,99,100,1.66,1611788939
Sørland,NO,67.667,12.6934,32.74,89,3,15.88,1611788993
Borazjan,IR,29.2666,51.2159,58.98,40,79,0.47,1611788939
Praia da Vitória,PT,38.7333,-27.0667,60.8,100,40,23.85,1611788882
Grand-Santi,GF,4.25,-54.3833,73.11,94,93,3.44,1611789255
Tasiilaq,GL,65.6145,-37.6368,21.2,45,90,18.41,1611789126
Carrickfergus,GB,54.7158,-5.8058,44.6,93,75,16.11,1611788940
Tagawa,JP,33.6333,130.8,41.0,87,0,3.44,1611788941
Genhe,CN,50.7833,121.5167,-30.24,82,96,3.0,1611788713
Abū Zabad,SD,12.35,29.25,71.51,21,51,13.56,1611788941
Santa María del Oro,MX,25.9333,-105.3667,61.48,26,99,9.28,1611788941
Qaanaaq,GL,77.484,-69.3632,-15.59,64,0,9.73,1611789255
Inhambane,MZ,-23.865,35.3833,79.0,88,14,7.87,1611789138
Barrow,US,71.2906,-156.7887,-9.4,77,90,5.75,1611789255
Borogontsy,RU,62.6683,131.1683,-52.37,76,88,1.77,1611788670
Bluff,NZ,-46.6,168.3333,53.01,76,99,17.0,1611789256
Bom Jesus,BR,-9.0744,-44.3586,81.7,49,64,2.51,1611788882
Port Macquarie,AU,-31.4333,152.9167,78.8,78,90,4.61,1611788917
Coihueco,CL,-36.6167,-71.8333,75.2,38,0,11.5,1611788942
Gamba,GA,-2.65,10.0,75.29,92,100,4.38,1611788666
Torbay,CA,47.6666,-52.7314,28.0,80,90,6.91,1611789256
Jalu,LY,29.0331,21.5482,48.96,65,0,8.72,1611788862
Ponta do Sol,PT,32.6667,-17.1,59.0,78,86,1.99,1611788882
Bengkulu,ID,-3.8004,102.2655,75.33,89,100,5.73,1611789257
Nikolskoye,RU,59.7035,30.7861,34.0,86,90,2.24,1611788747
Kruisfontein,ZA,-34.0033,24.7314,64.0,87,88,3.15,1611789005
Pacific Grove,US,36.6177,-121.9166,51.01,87,90,6.91,1611788787
Hasaki,JP,35.7333,140.8333,35.6,87,40,6.91,1611789111
Lubango,AO,-14.9172,13.4925,58.84,57,84,2.77,1611788943
La Santisima Trinidad,BO,-14.8333,-64.9,80.6,94,90,4.61,1611788943
Puerto Ayora,EC,-0.7393,-90.3518,84.2,70,20,21.85,1611788865
Bredasdorp,ZA,-34.5322,20.0403,53.6,82,86,3.44,1611789258
Belaya Gora,RU,68.5333,146.4167,-23.82,87,100,2.86,1611788944
Caravelas,BR,-17.7125,-39.2481,76.06,81,100,5.08,1611789258
Riyadh,SA,24.6877,46.7219,62.6,27,0,9.22,1611788825
Nicolás Bravo,MX,18.45,-88.9167,82.4,74,40,9.22,1611788944
Nadym,RU,65.5333,72.5167,-35.23,81,97,4.54,1611788944
De-Kastri,RU,51.4667,140.7833,-3.69,88,100,13.56,1611788945
Rawson,AR,-43.3002,-65.1023,67.32,39,87,11.39,1611789029
Pevek,RU,69.7008,170.3133,-23.24,87,100,3.47,1611789259
Fortuna,US,40.5982,-124.1573,48.0,87,75,19.57,1611789259
Cidreira,BR,-30.1811,-50.2056,73.94,92,100,7.4,1611788996
Hermanus,ZA,-34.4187,19.2345,55.99,89,42,8.75,1611789259
Mishelevka,RU,52.8575,103.1719,-8.84,89,100,7.05,1611788946
Umred,IN,20.85,79.3333,66.2,59,19,2.3,1611788946
Vilhena,BR,-12.7406,-60.1458,77.0,83,40,5.75,1611788946
Mashivka,UA,49.4431,34.8669,39.61,81,100,11.39,1611788946
Chapais,CA,49.7834,-74.8492,17.6,86,90,6.91,1611789260
Kenai,US,60.5544,-151.2583,15.01,85,40,6.91,1611789260
College,US,64.8569,-147.8028,0.0,77,40,1.68,1611789260
Albany,US,42.6001,-73.9662,28.99,61,87,11.99,1611789260
La Palma,US,33.8464,-118.0467,62.01,39,1,9.22,1611788946
George Town,MY,5.4112,100.3354,78.8,94,20,4.59,1611789261
Los Llanos de Aridane,ES,28.6585,-17.9182,64.0,88,0,8.05,1611788912
Dehlorān,IR,32.6941,47.2679,59.0,34,100,6.29,1611788947
Mossamedes,AO,-15.1961,12.1522,73.9,78,92,8.59,1611789023
Chokurdakh,RU,70.6333,147.9167,-14.53,89,100,12.75,1611789261
Iglesias,IT,39.3114,8.535,55.99,82,40,5.75,1611788864
Chifeng,CN,42.2683,118.9636,-5.89,80,0,13.35,1611789261
New Norfolk,AU,-42.7826,147.0587,59.0,53,63,1.99,1611788884
Porbandar,IN,21.6422,69.6093,60.89,40,0,10.27,1611789008
Chimoré,BO,-16.9833,-65.1333,74.59,95,100,1.86,1611788948
Safi,MA,32.2994,-9.2372,63.09,86,0,14.05,1611788948
Katsuura,JP,35.1333,140.3,46.0,65,75,14.97,1611789262
Kwang Binh,VN,17.4833,106.6,69.58,88,99,6.73,1611788948
Kapuskasing,CA,49.4169,-82.4331,3.2,72,100,12.66,1611788728
Aksarka,RU,66.5606,67.7975,-27.53,84,100,6.89,1611789262
Hilo,US,19.7297,-155.09,77.0,69,90,6.91,1611789263
Kasongo-Lunda,CD,-6.4667,16.8167,69.66,94,98,2.37,1611788949
Baoro,CF,5.6667,15.9667,72.46,30,81,3.22,1611788949
Hong Kong,HK,22.2855,114.1577,63.0,84,0,1.99,1611788990
Savonlinna,FI,61.8699,28.88,32.0,100,90,3.44,1611788949
Kolosovka,RU,56.4678,73.611,12.52,97,96,8.46,1611788949
Saint-Philippe,RE,-21.3585,55.7679,78.8,61,0,8.05,1611789134
Shīeli,KZ,44.1667,66.75,22.77,91,0,6.53,1611788950
Saldanha,ZA,-33.0117,17.9442,62.6,67,0,14.97,1611788972
Clyde River,CA,70.4692,-68.5914,-13.0,77,1,3.44,1611788592
Karlstad,SE,59.3793,13.5036,15.8,100,71,5.75,1611788950
San Patricio,US,28.017,-97.5169,69.8,23,75,13.8,1611788914
Kaseda-shirakame,JP,31.4167,130.3167,42.8,100,75,3.44,1611789264
Natal,BR,-5.795,-35.2094,80.6,78,20,12.66,1611789159
Faanui,PF,-16.4833,-151.75,81.19,74,1,13.65,1611789264
Alice Springs,AU,-23.7,133.8833,77.0,65,40,6.91,1611788620
Longyearbyen,SJ,78.2186,15.6401,6.8,66,20,16.11,1611789264
Acajutla,SV,13.5928,-89.8275,86.0,30,0,6.91,1611788738
Kitimat,CA,54.0524,-128.6534,32.0,73,99,5.37,1611788951
Narsaq,GL,60.9167,-46.05,37.4,35,75,27.63,1611789151
Kapit,MY,2.0167,112.9333,73.33,94,100,0.36,1611788902
Prince Rupert,CA,54.3161,-130.3201,35.6,69,1,2.3,1611788880
Sitka,US,57.0531,-135.33,30.2,37,1,8.05,1611788999
Leshukonskoye,RU,64.8989,45.7622,25.32,99,100,2.82,1611789026
High Level,CA,58.5169,-117.136,-7.6,71,20,9.22,1611788843
Geraldton,AU,-28.7667,114.6,60.8,82,0,8.05,1611789170
Bandarbeyla,SO,9.4942,50.8122,73.31,75,40,16.98,1611789266
Mbutuý,PY,-24.9667,-56.3,74.32,97,80,4.16,1611788952
Buin,CL,-33.7333,-70.75,82.99,32,0,8.05,1611788952
Hanzhong,CN,33.0728,107.0303,37.13,67,86,1.32,1611788953
Ribeira Grande,PT,38.5167,-28.7,61.61,81,50,22.93,1611788869
Olinda,BR,-8.0089,-34.8553,78.8,69,75,9.22,1611789156
Margate,GB,51.3813,1.3862,46.99,87,100,3.47,1611789267
Cape Town,ZA,-33.9258,18.4232,64.99,68,0,17.27,1611788661
Hofn,IS,64.2539,-15.2082,26.11,87,13,16.31,1611789267
Saint George,US,37.1041,-113.5841,44.01,49,90,18.41,1611788748
Ibb,YE,13.9667,44.1833,57.47,40,0,4.88,1611788953
Darnah,LY,32.767,22.6367,53.65,64,81,15.43,1611789267
São João da Barra,BR,-21.6403,-41.0511,80.6,54,0,23.02,1611788953
Coro,VE,11.4045,-69.6734,76.68,78,100,17.16,1611788757
Banyo,CM,6.75,11.8167,67.91,26,27,3.74,1611788954
Presidente Venceslau,BR,-21.8761,-51.8439,75.2,88,40,2.24,1611788941
Upernavik,GL,72.7868,-56.1549,-2.92,91,99,4.0,1611789268
Raudeberg,NO,61.9875,5.1352,30.0,92,98,10.4,1611789268
Izhma,RU,65.0083,53.9113,14.63,97,100,1.07,1611788954
Alyangula,AU,-13.8483,136.4192,82.4,83,40,6.91,1611788676
Nikki,BJ,9.9401,3.2108,75.58,18,29,4.5,1611788954
Henties Bay,NA,-22.116,14.2845,68.0,85,6,6.13,1611788889
Ternate,ID,0.8,127.4,80.49,78,91,4.59,1611789268
Viedma,AR,-40.8135,-62.9967,64.0,74,100,12.26,1611789268
Siddipet,IN,18.1,78.85,65.68,88,89,10.71,1611788955
Miyako,JP,39.6367,141.9525,33.08,82,100,5.86,1611788955
Lüderitz,NA,-26.6481,15.1594,67.71,61,0,27.29,1611789269
Port Augusta,AU,-32.5,137.7667,80.01,61,70,3.44,1611788890
Saint-Louis,SN,16.3333,-15.0,73.4,28,0,2.3,1611788955
Dikson,RU,73.5069,80.5464,-20.58,86,100,9.75,1611789125
Manadhoo,MV,5.7667,73.3833,80.51,66,49,11.23,1611788956
Newala,TZ,-10.9431,39.2787,66.09,100,5,3.91,1611788956
Burnie,AU,-41.0667,145.9167,60.01,51,46,11.99,1611789270
Talaya,RU,61.3833,152.75,-37.68,78,100,3.44,1611789270
Lompoc,US,34.6391,-120.4579,53.6,87,90,14.97,1611789068
Srikakulam,IN,18.3,83.9,70.11,89,21,3.85,1611788956
Hammerfest,NO,70.6634,23.6821,21.2,68,75,12.66,1611788957
Portland,US,45.5234,-122.6762,45.0,76,90,11.5,1611788699
Fairbanks,US,64.8378,-147.7164,0.0,77,40,1.21,1611789033
Hutchinson,US,38.0608,-97.9298,26.6,63,1,4.61,1611788726
Lesogorsk,RU,56.0458,99.5136,-1.68,92,100,2.55,1611788958
Kavaratti,IN,10.5669,72.642,80.56,67,71,11.01,1611788674
Městec Králové,CZ,50.2072,15.2976,27.0,86,0,5.75,1611788959
Araguaína,BR,-7.1911,-48.2072,76.08,89,99,3.56,1611788959
Provideniya,RU,64.3833,-173.3,8.6,92,90,20.13,1611789271
Krasnosel'kup,RU,65.7,82.4667,-39.23,82,13,3.71,1611788959
Ambon City,ID,-3.6954,128.1814,82.4,78,20,3.44,1611789157
Pangnirtung,CA,66.1451,-65.7125,-4.0,77,1,4.61,1611788871
Along,IN,28.1667,94.7667,49.48,67,0,1.79,1611788694
Hobyo,SO,5.3505,48.5268,75.67,77,10,18.72,1611788673
Leningradskiy,RU,69.3833,178.4167,-16.69,87,100,3.69,1611789272
Kieta,PG,-6.2167,155.6333,84.92,73,100,9.1,1611789272
La Rioja,ES,42.25,-2.5,48.2,93,0,6.82,1611788960
Cayenne,GF,4.9333,-52.3333,78.8,78,75,4.61,1611789273
Makakilo City,US,21.3469,-158.0858,82.4,51,20,17.27,1611788960
Puerto El Triunfo,SV,13.2833,-88.55,93.2,38,0,4.61,1611788961
Kaifeng,CN,34.7911,114.3483,42.8,12,0,22.37,1611788961
Maragogi,BR,-9.0122,-35.2225,76.93,84,16,8.5,1611789273
Laas,IT,46.6166,10.7002,28.99,86,0,5.73,1611789273
Thompson,CA,55.7435,-97.8558,-14.8,84,20,4.61,1611789273
Kibaya,TZ,-5.3,36.5667,57.76,100,63,2.71,1611788961
Baracoa,CU,20.3467,-74.4958,74.77,79,28,4.29,1611788961
Kemijärvi,FI,66.7131,27.4306,10.89,95,100,8.59,1611788961
Klaksvík,FO,62.2266,-6.589,32.0,64,20,6.91,1611789274
Neiafu,TO,-18.65,-173.9833,75.2,94,90,13.8,1611789274
Vostok,RU,46.4856,135.8833,-13.97,89,55,4.72,1611788962
Gouré,NE,13.9835,10.2704,73.0,12,49,11.01,1611788962
Tuatapere,NZ,-46.1333,167.6833,53.01,76,100,17.0,1611789040
Vao,NC,-22.6667,167.4833,78.42,85,100,19.77,1611789274
Buala,SB,-8.145,159.5921,85.39,69,97,11.27,1611789274
Khorramshahr,IR,30.4397,48.1664,61.18,31,100,6.51,1611788962
San Cristobal,VE,7.7669,-72.225,82.4,61,40,6.91,1611788962
Aklavik,CA,68.2191,-135.0107,-14.8,76,75,2.73,1611789275
Nueva Guinea,NI,11.6876,-84.4562,77.23,80,33,10.2,1611788963
Tuktoyaktuk,CA,69.4541,-133.0374,-27.4,75,20,5.75,1611789275
Aripuanã,BR,-9.1667,-60.6333,75.15,97,78,2.62,1611789015
Caucayá,CO,-0.1934,-74.7819,79.0,80,67,0.96,1611788963
Visby,SE,57.6409,18.296,28.99,93,90,6.91,1611788963
Pimenta Bueno,BR,-11.6725,-61.1936,73.29,96,99,2.71,1611788963
Marathon,US,44.9,-89.7668,17.6,45,1,5.75,1611788941
Abu Samrah,SY,35.3029,37.1841,50.27,73,100,11.68,1611788964
Pisco,PE,-13.7,-76.2167,75.2,60,0,10.36,1611788987
Villarrica,PY,-25.75,-56.4333,74.91,96,64,4.63,1611788964
Cherskiy,RU,68.75,161.3,-23.42,85,100,4.52,1611789276
Bergen,NO,60.392,5.328,21.99,93,0,4.61,1611788964
Nouakchott,MR,18.0858,-15.9785,71.6,8,0,11.5,1611788744
Zhigansk,RU,66.7697,123.3711,-48.71,75,57,5.77,1611789277
Dumas,US,35.8656,-101.9732,45.0,36,1,8.05,1611788965
Shimoda,JP,34.6667,138.95,39.99,78,95,5.01,1611789277
Bethel,US,41.3712,-73.414,30.2,69,90,5.75,1611789201
Port Lincoln,AU,-34.7333,135.8667,67.35,75,80,6.55,1611788873
San Quintín,MX,30.4833,-115.95,58.08,49,80,9.75,1611788916
Matagami,CA,49.7502,-77.6328,5.0,92,90,6.91,1611789278
Ancud,CL,-41.8697,-73.8203,63.0,63,20,9.22,1611789136
Yerbogachën,RU,61.2767,108.0108,-40.77,80,83,5.64,1611789278
Uyuni,BO,-20.4597,-66.825,57.07,31,0,10.33,1611788966
Kaitangata,NZ,-46.2817,169.8464,53.01,74,78,15.01,1611789279
Poso,ID,-1.3959,120.7524,78.01,76,94,3.02,1611788966
Linxia Chengguanzhen,CN,35.6003,103.2064,17.96,86,91,0.47,1611789279
Hamilton,US,39.1834,-84.5333,30.99,93,90,5.75,1611789279
Morondava,MG,-20.2833,44.2833,82.22,74,0,2.84,1611789279
Port Hardy,CA,50.6996,-127.4199,41.0,70,90,11.5,1611788967
Grants,US,35.1473,-107.8514,35.6,41,1,11.5,1611788967
Merauke,ID,-8.4667,140.3333,81.86,83,100,14.43,1611788967
Burriana,ES,39.889,-0.085,61.0,66,91,5.77,1611788649
Lewistown,US,40.5992,-77.5714,33.01,69,90,9.22,1611788967
Honiara,SB,-9.4333,159.95,82.22,79,99,9.98,1611788967
Deputatsky,RU,69.3,139.9,-21.75,89,100,2.91,1611789280
Tezu,IN,27.9167,96.1667,56.64,33,0,4.43,1611789280
Port Elizabeth,ZA,-33.918,25.5701,64.4,77,0,5.75,1611788872
Pak Phanang,TH,8.3511,100.202,77.56,83,83,7.52,1611788968
Benguela,AO,-12.5763,13.4055,75.65,79,100,5.61,1611788968
Aleksandrovsk-Sakhalinskiy,RU,50.8975,142.1561,-1.44,91,100,7.7,1611788968
Raisio,FI,60.4859,22.169,28.4,93,90,4.61,1611788840
Arrondissement de Nevers,FR,46.9167,3.3333,48.2,100,90,8.05,1611788968
Saint-Augustin,CA,51.226,-58.6502,14.65,92,47,9.93,1611788912
Havre-St-Pierre,CA,50.2334,-63.5986,21.2,58,90,5.75,1611788893
Laureles,US,26.1092,-97.4941,69.01,42,1,18.41,1611788969
Ndjolé,GA,-0.1783,10.7649,72.45,94,91,0.76,1611788969
Thinadhoo,MV,0.5333,72.9333,81.48,77,69,16.89,1611788969
Weligama,LK,5.9667,80.4167,73.49,83,37,2.59,1611788969
Progreso,MX,21.2833,-89.6667,91.4,43,75,9.22,1611788767
Karmaskaly,RU,54.3709,56.1837,19.4,86,0,11.18,1611788969
Codajás,BR,-3.8367,-62.0569,77.09,89,81,2.13,1611789281
Ozuluama de Mascareñas,MX,21.6667,-97.85,64.87,74,100,10.31,1611788970
Baghdad,IQ,33.3406,44.4009,60.8,36,40,14.97,1611788830
Ilulissat,GL,69.2167,-51.1,6.8,51,0,3.44,1611789282
Poptún,GT,16.3311,-89.4169,76.87,83,33,2.57,1611788970
São Filipe,CV,14.8961,-24.4956,74.03,68,0,5.1,1611788858
Londoko,RU,49.0333,131.9833,-18.4,84,0,2.57,1611788970
Gusau,NG,12.1628,6.6614,70.65,20,13,10.29,1611788971
Kungurtug,RU,50.5994,97.5228,3.61,88,100,1.16,1611788971
Papara,BR,-3.9839,-38.7273,82.4,78,20,5.75,1611788971
Wamba,NG,8.9333,8.6,76.57,18,42,4.65,1611788971
Lorengau,PG,-2.0226,147.2712,83.61,78,88,10.02,1611789022
Ponta Delgada,PT,37.7333,-25.6667,63.0,94,75,18.41,1611788971
Airai,TL,-8.9266,125.4092,62.98,100,100,3.27,1611789158
Mendeleyevo,RU,56.0333,37.2167,32.0,74,90,4.47,1611788971
Kualakapuas,ID,-3.0091,114.3876,75.2,94,40,2.3,1611788971
Saskylakh,RU,71.9167,114.0833,-41.6,80,93,1.5,1611789283
Khāsh,IR,28.2211,61.2158,35.42,57,0,1.88,1611788972
Bambous Virieux,MU,-20.3428,57.7575,77.0,88,20,8.05,1611788856
Vicuña,CL,-30.0319,-70.7081,64.4,72,0,13.8,1611788972
Nioro,GM,13.35,-15.75,73.76,17,0,1.45,1611788912
Almaznyy,RU,48.0448,40.045,37.4,93,90,22.37,1611788972
Rapid Valley,US,44.0625,-103.1463,30.0,69,1,2.95,1611788972
Kailua,US,21.4022,-157.7394,82.4,61,90,14.97,1611789121
Coyhaique,CL,-45.5752,-72.0662,55.4,54,75,5.75,1611789284
Half Moon Bay,US,37.4636,-122.4286,51.01,87,90,8.05,1611788679
Aksu,CN,41.1231,80.2644,15.58,88,0,1.39,1611788973
Yarkovo,RU,57.4028,67.0786,21.13,97,99,8.48,1611788973
Dakar,SN,14.6937,-17.4441,66.2,82,0,9.22,1611789284
La Ronge,CA,55.1001,-105.2842,-0.4,71,45,8.05,1611788973
Vestmanna,FO,62.1564,-7.1664,32.0,64,20,6.91,1611789285
Tawao,MY,4.2498,117.8871,78.8,83,20,2.3,1611788974
Wairoa,NZ,-39.0333,177.3667,84.36,34,72,4.27,1611788974
Martapura,ID,-3.4167,114.85,75.2,94,40,2.3,1611789285
Solnechnyy,RU,50.7214,136.6319,-11.83,86,98,2.08,1611789147
Yinchuan,CN,38.4681,106.2731,19.72,69,0,4.23,1611788975
Robertsport,LR,6.7533,-11.3686,79.59,87,0,9.33,1611788975
Honningsvåg,NO,70.9821,25.9704,24.8,58,75,14.97,1611788975
Wanning,CN,18.8003,110.3967,66.94,86,66,10.02,1611788869
Puerto Escondido,MX,15.85,-97.0667,86.0,70,40,5.75,1611788975
Gorin,RU,51.1983,136.6669,-8.82,89,100,3.6,1611788975
Hambantota,LK,6.1241,81.1185,74.12,76,29,12.8,1611789286
Levice,SK,48.2156,18.6071,33.01,88,0,4.76,1611788975
Ust'-Kulom,RU,61.6864,53.6902,29.75,97,100,9.51,1611788975
Dondo,MZ,-19.6094,34.7431,80.6,89,0,5.75,1611788656
Craig,US,40.5153,-107.5464,28.4,50,90,5.75,1611788819
Flin Flon,CA,54.7682,-101.865,-2.2,78,40,2.3,1611788976
Vágur,FO,61.4732,-6.8119,36.12,77,76,15.05,1611788976
Selkirk,CA,50.1436,-96.8845,-2.2,55,71,1.14,1611788977
Rantauprapat,ID,2.1,99.8333,70.92,93,98,2.08,1611788977
Naze,JP,28.3667,129.4833,60.8,67,40,10.36,1611789287
Taunggyi,MM,20.7833,97.0333,49.06,70,0,1.95,1611788977
Lékoni,GA,-1.5843,14.2591,73.76,80,77,2.39,1611788977
Muros,ES,42.7762,-9.0603,57.99,93,100,3.0,1611789288
Okhotsk,RU,59.3833,143.3,-12.39,78,73,10.94,1611788977
Namatanai,PG,-3.6667,152.4333,84.63,70,100,9.33,1611789288
Belz,FR,47.6751,-3.168,53.01,100,100,16.2,1611788977
Dawei,MM,14.0833,98.2,72.18,80,0,3.74,1611788977
Marabu,MY,4.4148,114.0089,77.0,94,20,2.3,1611789197
Vanimo,PG,-2.6741,141.3028,79.84,80,100,5.84,1611789032
Houma,US,29.5958,-90.7195,66.2,55,1,10.36,1611788978
Khovu-Aksy,RU,51.1333,93.6,5.67,88,100,4.43,1611788978
Saint Anthony,US,45.0205,-93.218,14.0,57,90,3.44,1611788877
Sturgis,US,41.7992,-85.4192,24.8,63,1,5.75,1611788978
Inuvik,CA,68.3499,-133.7218,-13.0,84,99,2.3,1611788750
Yar-Sale,RU,66.8333,70.8333,-36.92,81,77,5.59,1611788979
Druzhba,UA,52.0428,33.9453,29.86,98,100,13.04,1611788979
Faya,SA,18.3851,42.4509,57.2,51,0,4.32,1611789289
Mezen',RU,65.8522,44.24,10.62,96,100,7.02,1611788979
Husavik,IS,66.0449,-17.3389,15.8,86,90,9.31,1611789289
Kīhei,US,20.785,-156.4656,80.6,54,40,28.77,1611788951
Imeni Poliny Osipenko,RU,52.4201,136.4853,-8.21,91,100,5.17,1611788980
Seoul,KR,37.5683,126.9778,30.2,69,0,6.91,1611789090
Jumla,NP,29.2747,82.1838,32.23,40,0,4.92,1611788980
Hauterive,FR,46.0901,3.4459,48.2,81,90,13.8,1611789290
La Asuncion,VE,11.0333,-63.8628,75.76,86,79,14.05,1611788980
Tonj,SS,7.2737,28.6822,80.91,31,48,3.06,1611788980
Karratha,AU,-20.7377,116.8463,88.54,21,0,8.46,1611789197
Gallup,US,35.5281,-108.7426,35.01,55,1,5.75,1611788715
Morón,AR,-34.6534,-58.6198,81.0,41,0,5.01,1611789291
Kavieng,PG,-2.5744,150.7967,84.45,73,88,10.6,1611789291
Mayo,US,38.8876,-76.5119,39.99,60,75,8.05,1611789291
Beba,CU,22.4437,-79.7253,78.8,65,20,8.05,1611788981
Kuantan,MY,3.8077,103.326,75.2,94,20,2.3,1611788981
Horodnytsya,UA,50.807,27.3168,28.2,98,100,7.81,1611788981
Pochutla,MX,15.7432,-96.4661,86.0,58,40,9.22,1611788981
Darhan,MN,49.4867,105.9228,-16.83,81,1,8.01,1611788981
Galle,LK,6.0367,80.217,75.69,78,41,2.73,1611789106
Salalah,OM,17.0151,54.0924,68.0,73,0,2.3,1611789292
Tuni,IN,17.35,82.55,68.86,88,6,4.12,1611788982
Cairns,AU,-16.9167,145.7667,80.6,83,40,3.44,1611788982
Khandyga,RU,62.6667,135.6,-54.35,71,76,0.38,1611789292
Vila Velha,BR,-20.3297,-40.2925,78.8,73,0,2.3,1611788914
Cockburn Town,TC,21.4612,-71.1419,78.8,61,40,13.8,1611788890
Guerrero Negro,MX,27.9769,-114.0611,63.46,39,100,10.71,1611788982
Rosetta,EG,31.4044,30.4164,59.0,55,40,13.8,1611788982
Codrington,AU,-38.2667,141.9667,69.33,65,71,16.64,1611789293
Kyabé,TD,9.4515,18.9449,77.63,18,78,5.53,1611788983
Kinshasa,CD,-4.3246,15.3215,73.35,87,100,2.46,1611788983
Comodoro Rivadavia,AR,-45.8667,-67.5,62.6,48,40,14.97,1611788746
Ulagan,RU,50.6321,87.9563,9.19,84,93,2.95,1611788983
Port Blair,IN,11.6667,92.75,78.3,83,94,10.67,1611788893
Liaozhong,CN,41.5061,122.7242,14.0,79,75,8.95,1611788983
Carolina,PR,18.3808,-65.9574,78.8,78,40,10.36,1611788857
Kiryat Gat,IL,31.61,34.7642,59.0,77,67,7.0,1611789125
Jaguaruna,BR,-28.615,-49.0256,76.3,90,100,5.35,1611788984
Lagoa,PT,39.05,-27.9833,60.49,83,58,28.03,1611789294
Kangaatsiaq,GL,68.3065,-53.4641,5.47,91,35,9.33,1611788985
Regierungsbezirk Detmold,DE,51.8,8.0,42.01,98,97,5.99,1611788985
Tomatlán,MX,19.9333,-105.25,79.5,65,13,6.78,1611788895
Gisborne,NZ,-38.6533,178.0042,80.71,48,14,3.58,1611788691
Mount Gambier,AU,-37.8333,140.7667,64.4,72,35,12.66,1611788697
Arona,ES,28.0996,-16.681,66.99,88,20,4.61,1611788985
Srednekolymsk,RU,67.45,153.6833,-26.37,85,100,12.26,1611789295
Chandler,US,33.3062,-111.8412,62.01,27,1,9.22,1611788803
Olafsvik,IS,64.8945,-23.7142,30.04,87,85,15.19,1611789295
Reconquista,AR,-29.15,-59.65,81.03,57,29,4.83,1611788912
Nhulunbuy,AU,-12.2333,136.7667,82.4,78,98,12.66,1611788986
Mitsamiouli,KM,-11.3847,43.2844,81.88,66,1,6.62,1611788986
Paredon,MX,16.0333,-93.8667,87.17,51,1,7.94,1611788986
Acaraú,BR,-2.8856,-40.12,79.95,79,3,13.53,1611788986
Paamiut,GL,61.994,-49.6678,30.18,83,79,6.11,1611789296
Nabire,ID,-3.3667,135.4833,77.09,91,100,2.35,1611788987
Itaituba,BR,-4.2761,-55.9836,84.2,79,40,5.75,1611788987
Lodja,CD,-3.4833,23.4333,68.95,98,99,2.68,1611788898
Zhezkazgan,KZ,47.8043,67.7144,10.94,97,49,6.78,1611789018
Tabuk,PH,17.4189,121.4443,69.3,87,93,3.13,1611789296
San Miguel,SV,13.4833,-88.1833,93.2,38,0,4.61,1611788838
Koungou,YT,-12.7336,45.2042,78.8,83,0,3.44,1611788987
Lesosibirsk,RU,58.2358,92.4828,-24.97,83,89,8.84,1611788988
Mtwara,TZ,-10.2667,40.1833,79.3,79,1,6.73,1611788988
Zaysan,KZ,47.4667,84.8667,-1.01,90,91,1.07,1611789029
Bahía Honda,CU,22.9036,-83.1592,76.53,77,8,5.93,1611788988
Itháki,GR,38.3642,20.7185,35.6,86,40,3.44,1611788988
San Luis,AR,-33.295,-66.3356,85.21,35,47,7.45,1611788988
Shache,CN,38.4167,77.2406,19.76,89,0,1.52,1611788988
Penzance,GB,50.1186,-5.5371,51.8,100,90,21.85,1611789141
Chumikan,RU,54.7183,135.315,-13.14,88,100,8.72,1611788888
Noshiro,JP,40.2039,140.0242,26.6,86,75,5.73,1611788989
Dongtai,CN,32.8523,120.3095,39.45,74,42,15.05,1611788989
Alāwalpur,IN,31.4328,75.6508,44.11,61,0,2.98,1611788989
Chicama,PE,-7.8447,-79.1469,69.8,88,75,13.8,1611788998
West Bay,KY,19.3667,-81.4167,82.4,65,20,9.22,1611788990
Baiyin,CN,36.5583,104.2081,19.99,66,0,4.47,1611788990
Vila Franca do Campo,PT,37.7167,-25.4333,63.0,94,75,18.41,1611788896
São Francisco,BR,-15.9486,-44.8644,72.68,61,0,4.05,1611788990
Richards Bay,ZA,-28.783,32.0377,73.4,95,100,9.4,1611788871
Saint-Félicien,CA,48.6501,-72.4491,23.0,93,90,2.21,1611788990
Hvide Sande,DK,56.0045,8.1294,33.01,81,67,11.45,1611788990
Les Cayes,HT,18.2,-73.75,75.69,70,0,4.0,1611788990
Djibouti,DJ,11.5,42.5,71.6,73,20,15.75,1611788991
Lavrentiya,RU,65.5833,-171.0,-0.2,88,98,17.13,1611789299
Aksaray,TR,38.3726,34.0254,42.8,70,75,6.91,1611788991
Lieksa,FI,63.3167,30.0167,27.3,99,91,3.74,1611788991
Puerto Baquerizo Moreno,EC,-0.9,-89.6,80.6,89,75,14.97,1611788991
Malbork,PL,54.0359,19.0266,32.0,100,74,7.87,1611788991
Skjervøy,NO,70.0311,20.9714,24.37,89,98,23.02,1611788991
Al Bardīyah,LY,31.7561,25.0865,51.93,60,26,13.8,1611789300
Rondonópolis,BR,-16.4708,-54.6356,73.54,92,98,4.79,1611788992
Fort Nelson,CA,58.8053,-122.7002,-7.6,71,40,6.91,1611788860
Little Chute,US,44.28,-88.3184,18.0,41,40,6.91,1611788992
Sibolga,ID,1.7427,98.7792,74.52,77,100,4.47,1611788992
Icod de los Vinos,ES,28.3724,-16.7119,66.99,26,0,5.99,1611788992
Nara,JP,34.6851,135.8049,43.0,87,75,2.3,1611788992
Mount Isa,AU,-20.7333,139.5,86.0,58,0,3.44,1611788917
Marawi,PH,7.9986,124.2928,71.01,85,97,5.99,1611789301
Konstantinovka,RU,49.6167,127.9833,-24.14,84,52,4.18,1611788992
Villafranca de los Barros,ES,38.5614,-6.3381,54.0,93,99,5.99,1611788993
Lazarev,RU,52.225,141.5131,-0.18,93,100,13.49,1611788993
Tamiahua,MX,21.2667,-97.45,66.76,80,100,20.4,1611788993
Naryan-Mar,RU,67.6713,53.087,-4.11,92,100,17.45,1611788993
Saint-Pierre,RE,-21.3393,55.4781,78.8,61,0,8.05,1611789302
Huilong,CN,31.8111,121.655,45.0,79,20,5.01,1611789303
Ugleural'skiy,RU,58.9534,57.5846,19.99,82,100,4.0,1611788993
Ukiah,US,39.1502,-123.2078,50.0,81,90,8.05,1611788994
Boende,CD,-0.2167,20.8667,71.17,95,99,2.75,1611788994
Kota Kinabalu,MY,5.9749,116.0724,75.2,94,20,2.3,1611788994
Bambanglipuro,ID,-7.95,110.2833,74.77,90,98,5.44,1611788916
Marrakesh,MA,31.6315,-8.0083,60.8,55,0,2.3,1611789060
Maceió,BR,-9.6658,-35.7353,75.2,88,0,3.44,1611789303
Kirkwood,US,38.5834,-90.4068,28.99,80,90,10.36,1611788994
Vernon,CA,50.2581,-119.2691,33.01,93,100,1.48,1611788931
Qaqortoq,GL,60.7167,-46.0333,37.4,35,75,27.63,1611789051
Shitanjing,CN,39.2342,106.3439,16.05,73,0,13.94,1611788995
Mahrīz,IR,31.5917,54.4318,39.2,26,0,4.61,1611788995
Turmalina,BR,-17.2856,-42.73,67.55,84,5,5.03,1611788995
Guanare,VE,9.0418,-69.7421,80.22,51,99,0.49,1611788995
Kudahuvadhoo,MV,2.6708,72.8944,79.54,73,60,17.18,1611789305
Hay River,CA,60.8156,-115.7999,-11.2,70,100,8.05,1611788792
Filingué,NE,14.3521,3.3168,71.42,16,0,10.29,1611788995
Manali,IN,13.1667,80.2667,73.4,88,40,2.3,1611788995
Humaitá,BR,-7.5061,-63.0208,76.64,94,98,1.45,1611788996
Pangkalanbuun,ID,-2.6833,111.6167,73.54,97,100,2.82,1611789144
Blyth,GB,55.1271,-1.5086,39.0,93,90,2.3,1611788996
Dunedin,NZ,-45.8742,170.5036,55.0,62,40,32.99,1611789153
Fort Frances,CA,48.5999,-93.4003,0.0,55,1,4.61,1611788996
Tilichiki,RU,60.4667,166.1,-10.28,90,95,8.39,1611789306
Mundybash,RU,53.211,87.2983,21.15,97,100,11.81,1611788996
Kindu,CD,-2.95,25.95,70.12,97,85,1.97,1611788996
Hurghada,EG,27.2574,33.8129,59.0,63,0,5.75,1611788997
Krasnoborsk,RU,61.5598,45.934,27.68,96,82,8.9,1611789306
Huntsville,US,34.7304,-86.5861,46.99,70,90,11.5,1611789138
Waltershausen,DE,50.9,10.5667,34.0,87,100,9.95,1611788997
Southbridge,US,42.0751,-72.0334,33.01,85,100,3.27,1611788942
Susanville,US,40.4163,-120.653,39.99,60,1,5.75,1611788997
Coldingham,GB,55.8868,-2.157,35.01,96,100,11.52,1611788997
Burns Lake,CA,54.2331,-125.7533,14.0,62,100,3.44,1611788997
Gillette,US,44.2911,-105.5022,35.6,48,1,19.57,1611788758
Payson,US,40.0444,-111.7321,35.01,69,90,16.11,1611788998
Banikoara,BJ,11.2985,2.4386,74.08,18,41,5.97,1611788998
Tanout,NE,14.9709,8.8879,65.32,21,0,12.19,1611789307
Mūvattupula,IN,9.9667,76.5833,68.0,88,61,3.13,1611788998
Gornopravdinsk,RU,60.05,69.9,-0.63,92,100,7.14,1611789015
Ixtapa,MX,20.7,-105.2,71.6,78,1,9.22,1611789151
Hervey Bay,AU,-25.2986,152.8535,81.0,70,35,5.99,1611788998
Presidencia Roque Sáenz Peña,AR,-26.7852,-60.4388,84.0,61,22,1.01,1611788998
Carballo,ES,43.213,-8.691,57.99,88,98,3.0,1611788999
Santiago de Chuco,PE,-8.15,-78.1833,53.01,79,100,6.06,1611788999
Lata,PT,40.1629,-8.3327,57.0,99,100,2.59,1611789170
Cabo San Lucas,MX,22.8909,-109.9124,72.0,60,20,5.75,1611788916
Vila,PT,42.0304,-8.1588,53.01,96,100,6.26,1611789308
Yantal',RU,56.8471,105.2542,-22.65,83,100,5.23,1611788999
Gao,ML,16.6362,1.637,67.26,17,0,11.81,1611789309
Sapa,PH,5.1544,120.3241,80.01,85,57,11.23,1611788999
Kaeo,NZ,-35.1,173.7833,76.6,55,9,7.0,1611789309
Sittwe,MM,20.15,92.9,61.21,62,0,5.88,1611789000
Sirte,LY,31.2089,16.5887,56.5,61,38,16.64,1611788906
Kętrzyn,PL,54.0768,21.3753,25.75,98,54,6.04,1611789000
Mildura,AU,-34.2,142.15,75.2,50,96,9.22,1611789000
Ustyuzhna,RU,58.8394,36.4321,20.21,98,39,4.88,1611789000
Xuzhou,CN,34.1805,117.1571,34.93,57,24,20.45,1611789000
Nanortalik,GL,60.1432,-45.2371,24.55,94,100,7.78,1611789310
Mehamn,NO,71.0357,27.8492,24.8,58,75,14.97,1611789310
Aktash,RU,50.3,87.7333,-4.63,87,76,3.62,1611789001
Harper,LR,4.375,-7.7169,78.71,84,12,8.39,1611789113
Broken Hill,AU,-31.95,141.4333,73.4,33,91,12.66,1611789001
Sambava,MG,-14.2667,50.1667,76.75,87,60,3.29,1611789129
Zaraza,VE,9.3503,-65.3245,77.56,71,99,9.78,1611789001
Agadez,NE,19.75,10.25,61.93,30,0,13.67,1611789311
Mahon,ES,39.8885,4.2658,53.6,94,0,4.61,1611789002
Qom,IR,34.6401,50.8764,40.86,63,3,0.87,1611789004
Biak,ID,-0.9131,122.8766,78.13,74,97,4.52,1611789311
Grindavik,IS,63.8424,-22.4338,32.0,64,0,21.85,1611789311
Tura,IN,25.5198,90.2201,55.54,69,0,3.27,1611788907
São Geraldo do Araguaia,BR,-6.4006,-48.555,75.38,91,97,3.22,1611789005
Cururupu,BR,-1.8283,-44.8683,76.89,89,72,3.0,1611789005
Sola,VU,-13.8833,167.55,82.33,79,100,19.39,1611789312
Manzhouli,CN,49.6,117.4333,-22.41,83,1,6.87,1611789006
Egvekinot,RU,66.3167,-179.1667,-13.4,87,98,22.24,1611789150
Vanderhoof,CA,54.0166,-124.0198,4.86,92,100,6.85,1611789006
Ile-Ife,NG,7.4667,4.5667,71.6,97,7,1.28,1611789006
Talnakh,RU,69.4865,88.3972,-26.77,82,70,3.89,1611789154
Santa Vitória do Palmar,BR,-33.5189,-53.3681,71.74,86,55,10.58,1611789007
Padang,ID,-0.9492,100.3543,71.6,94,40,3.44,1611789156
Labuhan,ID,-6.8844,112.2051,77.56,86,100,9.75,1611789020
Bintulu,MY,3.1667,113.0333,73.4,100,40,6.89,1611789007
San Rafael,AR,-34.6177,-68.3301,86.72,18,24,5.7,1611789007
Alofi,NU,-19.0595,-169.9187,80.6,83,75,9.22,1611789026
Mirny,RU,62.5353,113.9611,-44.36,80,44,1.97,1611789007
Phaltan,IN,17.9833,74.4333,67.33,39,0,2.3,1611789008
Vanavara,RU,60.34,102.2797,-17.16,84,100,12.33,1611789313
Porto-Novo,BJ,6.4965,2.6036,84.2,84,40,11.5,1611788579
Ploemeur,FR,47.7333,-3.4333,53.01,100,90,18.41,1611788881
Altay,CN,47.8667,88.1167,2.39,75,76,1.92,1611789008
Esim,GH,4.8699,-2.2405,78.26,88,24,7.9,1611789301
Halle,DE,51.5,12.0,36.0,87,75,10.36,1611789008
Tessalit,ML,20.1986,1.0114,65.39,22,0,8.23,1611789120
Paraíso,CR,9.8383,-83.8656,71.6,68,75,16.11,1611789008
Wasilla,US,61.5814,-149.4394,10.99,85,1,1.83,1611788927
Dolores,AR,-36.3132,-57.6792,69.82,48,0,11.48,1611789314
Zhangjiakou,CN,40.81,114.8794,3.34,62,2,27.09,1611789009
El Dorado,US,38.7666,-120.5177,39.99,96,100,11.16,1611789009
Luanda,AO,-8.8368,13.2343,80.6,83,40,5.75,1611789268
Eldorado,BR,-23.7869,-54.2836,72.54,90,98,6.11,1611789009
Malmesbury,ZA,-33.4608,18.7271,64.4,68,0,17.27,1611789010
Rexburg,US,43.826,-111.7897,28.99,80,90,9.22,1611788997
Ust-Tsilma,RU,65.441,52.1498,3.47,94,100,4.52,1611789316
Longonjo,AO,-12.9067,15.2533,60.96,74,100,2.59,1611789010
Beya,RU,53.0533,90.9139,23.45,93,100,19.86,1611789010
Praia,CV,14.9215,-23.5087,71.6,73,0,16.11,1611788894
Oktyabr'skiy,RU,54.4815,53.471,19.76,94,100,14.2,1611789011
Gorom-Gorom,BF,14.4439,-0.2361,68.38,17,0,7.05,1611789011
Manutuke,NZ,-38.6833,177.9167,82.76,41,22,3.83,1611789011
Panabá,MX,21.2833,-88.2667,82.27,69,13,7.92,1611789011
Turochak,RU,52.2576,87.1224,23.18,97,100,6.44,1611789011
San Vicente,AR,-26.6167,-54.1333,70.68,93,84,5.55,1611789012
Itarema,BR,-2.9248,-39.9167,80.02,78,1,13.76,1611789317
