City,Country,Latitude,Longitude,Max Temperature (F),Humidity (%),Cloudiness (%),Wind Speed (mph),Date
Ushuaia,AR,-54.8,-68.3,53.6,66,75,5.75,1613084207
Saint-Philippe,RE,-21.3585,55.7679,78.8,61,99,4.61,1613084449
Barrow,US,71.2906,-156.7887,-43.6,83,1,9.22,1613084247
Mataura,NZ,-46.1927,168.8643,61.59,49,1,2.19,1613084389
Punta Arenas,CL,-53.15,-70.9167,55.4,47,0,31.07,1613084545
Kruisfontein,ZA,-34.0033,24.7314,75.0,87,100,5.99,1613084771
East London,ZA,-33.0153,27.9116,75.07,85,9,16.58,1613084398
Lata,PT,40.1629,-8.3327,57.99,92,98,1.99,1613084526
Thurso,GB,58.5927,-3.5259,35.6,60,36,13.8,1613084772
Kapaa,US,22.0752,-159.319,75.99,60,1,9.22,1613084395
Port Alfred,ZA,-33.5906,26.891,70.0,95,77,1.01,1613084389
Jamestown,US,42.097,-79.2353,19.4,68,1,9.22,1613084393
Mar del Plata,AR,-38.0023,-57.5575,71.01,94,75,19.57,1613084130
Vila Velha,BR,-20.3297,-40.2925,84.0,83,75,6.91,1613084473
Hofn,IS,64.2539,-15.2082,40.21,70,100,17.31,1613084451
Turukhansk,RU,65.8167,87.9833,-24.81,82,8,4.56,1613084395
Saint Simons,US,31.1352,-81.3901,69.01,100,90,8.05,1613084773
Mahébourg,MU,-20.4081,57.7,78.8,78,75,8.05,1613084451
Killybegs,IE,54.6333,-8.45,32.0,91,100,14.0,1613084773
El Copé,PA,8.6167,-80.6,86.0,58,20,9.22,1613084773
Pudozh,RU,61.8099,36.5345,-12.59,89,10,2.59,1613084773
Måløy,NO,61.9353,5.1136,21.2,58,0,5.75,1613084773
Busselton,AU,-33.65,115.3333,50.0,97,0,9.35,1613084393
Carnarvon,AU,-24.8667,113.6333,71.6,88,96,14.97,1613084252
Khatanga,RU,71.9667,102.5,-24.56,87,92,4.29,1613084453
Adrar,MR,20.5022,-10.0711,68.97,18,16,9.17,1613084502
Cape Town,ZA,-33.9258,18.4232,72.0,94,0,12.66,1613084224
Coquimbo,CL,-29.9533,-71.3436,69.8,64,20,12.66,1613084296
Safford,US,32.834,-109.7076,69.8,14,1,4.61,1613084774
Bowen,AU,-20.0167,148.2333,78.8,78,24,6.91,1613084484
Rikitea,PF,-23.1203,-134.9692,79.18,70,76,7.47,1613084387
Zhovkva,UA,50.0583,23.9726,10.4,92,75,13.42,1613084775
Puerto Ayora,EC,-0.7393,-90.3518,78.8,83,75,6.91,1613084389
Pangnirtung,CA,66.1451,-65.7125,-5.8,84,75,12.66,1613084470
Nuuk,GL,64.1835,-51.7216,21.2,79,90,16.11,1613084570
Sabha,LY,27.0377,14.4283,60.55,29,0,8.72,1613084513
Kaeo,NZ,-35.1,173.7833,73.99,53,0,5.99,1613084775
New Norfolk,AU,-42.7826,147.0587,68.0,63,13,8.01,1613084441
Albany,US,42.6001,-73.9662,24.8,46,75,14.97,1613084284
Pisco,PE,-13.7,-76.2167,78.8,69,0,5.75,1613084505
Hermanus,ZA,-34.4187,19.2345,73.0,88,32,1.01,1613084776
Nānākuli,US,21.3906,-158.1547,78.8,47,1,9.22,1613084525
Dunedin,NZ,-45.8742,170.5036,59.0,61,0,8.99,1613084518
Shediac,CA,46.2198,-64.5411,15.8,53,20,19.57,1613084776
Longyearbyen,SJ,78.2186,15.6401,-0.4,78,20,12.66,1613084480
Dikson,RU,73.5069,80.5464,-15.02,89,100,3.85,1613084777
Yerbogachën,RU,61.2767,108.0108,-21.39,85,0,3.06,1613084568
Kerva,RU,55.6117,39.5766,5.49,95,98,4.36,1613084777
Cabedelo,BR,-6.9811,-34.8339,80.6,74,0,12.66,1613084420
Maiduguri,NG,11.8464,13.1603,68.32,23,0,6.8,1613084777
Kaitangata,NZ,-46.2817,169.8464,60.01,58,5,8.01,1613084433
Atuona,PF,-9.8,-139.0333,79.29,74,3,11.41,1613084398
Fortuna,US,40.5982,-124.1573,52.0,100,75,16.11,1613084429
Bonavista,CA,48.6499,-53.1147,24.01,86,100,12.66,1613084778
Sabang,ID,5.8933,95.3214,81.41,72,19,3.33,1613084778
Arraial do Cabo,BR,-22.9661,-42.0278,75.2,94,75,8.05,1613084394
Blackwater,AU,-23.5833,148.8833,76.73,62,60,10.49,1613084778
Jatai,BR,-17.8814,-51.7144,71.08,86,100,1.81,1613084545
Tromsø,NO,69.6496,18.957,30.2,80,75,23.02,1613084496
Natal,BR,-5.795,-35.2094,82.4,74,40,18.41,1613084529
La Ronge,CA,55.1001,-105.2842,-18.4,57,100,9.22,1613084391
Mehamn,NO,71.0357,27.8492,24.06,93,84,12.35,1613084779
Ubinskoye,RU,55.3068,79.6802,-29.09,84,0,5.7,1613084779
Inuvik,CA,68.3499,-133.7218,-0.4,78,36,2.3,1613084493
Klyuchi,RU,52.2667,79.1667,-19.86,87,56,5.21,1613084574
Masty,BY,53.4122,24.5387,7.03,93,100,13.29,1613084592
Codrington,AU,-38.2667,141.9667,62.69,65,97,11.52,1613084441
Bluff,NZ,-46.6,168.3333,55.24,70,42,9.84,1613084384
Castro,BR,-24.7911,-50.0119,61.63,94,93,4.9,1613084399
Tiksi,RU,71.6872,128.8694,-9.62,88,48,7.61,1613084463
Chui,UY,-33.6971,-53.4616,70.7,88,100,13.35,1613084423
Bredasdorp,ZA,-34.5322,20.0403,71.6,83,94,6.91,1613084398
Faanui,PF,-16.4833,-151.75,82.67,67,0,12.5,1613084780
Ilulissat,GL,69.2167,-51.1,10.4,67,75,19.57,1613084392
Fonte Boa,BR,-2.4959,-66.2662,81.46,70,21,2.19,1613084780
Souillac,MU,-20.5167,57.5167,78.8,78,75,8.05,1613084440
Luwuk,ID,-0.9516,122.7875,79.86,73,96,2.95,1613084780
Cooma,AU,-36.2333,149.1333,68.0,60,90,12.66,1613084781
Tasiilaq,GL,65.6145,-37.6368,19.4,68,90,5.48,1613084397
Namatanai,PG,-3.6667,152.4333,81.61,79,90,5.03,1613084384
Outjo,NA,-20.1167,16.15,64.81,93,100,13.62,1613084781
Lebowakgomo,ZA,-24.2,29.5,66.2,82,0,11.5,1613084781
Hithadhoo,MV,-0.6,73.0833,81.16,80,22,14.92,1613084781
Sakakah,SA,29.9697,40.2064,53.6,54,0,5.75,1613084519
Hamilton,US,39.1834,-84.5333,25.0,58,40,13.8,1613084226
Kutum,SD,14.2,24.6667,60.93,33,1,7.96,1613084782
Menongue,AO,-14.6585,17.691,67.39,64,100,4.79,1613084782
Horn Lake,US,34.9554,-90.0348,30.99,93,90,10.36,1613084782
Provideniya,RU,64.3833,-173.3,-5.8,59,20,29.08,1613084444
Hobart,AU,-42.8794,147.3294,68.0,45,20,18.41,1613084390
Astoria,US,46.1879,-123.8313,37.99,93,90,16.11,1613084783
Santana do Acaraú,BR,-3.4606,-40.2122,77.18,85,100,5.35,1613084783
Los Llanos de Aridane,ES,28.6585,-17.9182,62.6,72,0,4.61,1613084487
Guerrero Negro,MX,27.9769,-114.0611,65.05,63,0,15.9,1613084398
George Town,MY,5.4112,100.3354,78.8,83,40,3.44,1613084385
Nanning,CN,22.8167,108.3167,48.2,100,0,2.24,1613084783
Lebu,CL,-37.6167,-73.65,61.63,85,25,13.65,1613084399
Nikolskoye,RU,59.7035,30.7861,5.0,85,75,6.71,1613084388
‘Āhuimanu,US,21.4447,-157.8378,80.6,53,40,6.91,1613084784
Cherskiy,RU,68.75,161.3,-22.52,84,0,1.16,1613084422
Port Elizabeth,ZA,-33.918,25.5701,71.6,94,40,4.61,1613084453
Upernavik,GL,72.7868,-56.1549,0.03,81,88,6.13,1613084406
Yellowknife,CA,62.456,-114.3525,-4.0,71,20,12.66,1613084393
Oddur,SO,4.1213,43.8894,67.91,89,58,15.21,1613084784
Shellbrook,CA,53.2168,-106.4011,-20.2,57,75,16.11,1613084784
Hong Kong,HK,22.2855,114.1577,61.0,75,0,8.61,1613084229
Avarua,CK,-21.2078,-159.775,75.2,88,75,4.61,1613084397
Shelburne,CA,44.0787,-80.2041,15.8,67,90,4.61,1613084785
Laas,IT,46.6166,10.7002,33.8,79,0,6.91,1613084393
Sokyryany,UA,48.4475,27.4168,16.0,88,100,21.0,1613084785
Misratah,LY,32.3754,15.0925,58.15,73,0,10.45,1613084785
Niagara Falls,CA,43.1001,-79.0663,25.0,63,90,8.05,1613084555
Esperance,AU,-33.8667,121.9,59.0,72,90,6.2,1613084392
Saint Anthony,US,45.0205,-93.218,0.0,65,90,9.22,1613084785
Antofagasta,CL,-23.65,-70.4,71.6,68,20,14.97,1613084496
Sisimiut,GL,66.9395,-53.6735,4.46,90,90,9.31,1613084417
Kavieng,PG,-2.5744,150.7967,83.05,75,78,9.4,1613084464
Voznesen'ye,RU,61.0106,35.4781,-8.52,91,88,4.99,1613084786
Klaksvík,FO,62.2266,-6.589,33.8,69,3,14.97,1613084482
Pacific Grove,US,36.6177,-121.9166,57.0,62,75,5.75,1613084575
Berlevåg,NO,70.8578,29.0864,15.8,86,75,18.41,1613084442
Katobu,ID,-4.9408,122.5276,78.35,86,100,1.79,1613084537
Bayir,TR,37.2687,28.2167,60.8,77,75,13.8,1613084787
Khovd,MN,48.0056,91.6419,6.04,73,0,2.13,1613084510
Dingle,PH,10.9995,122.6711,76.32,88,88,2.66,1613084439
Shihezi,CN,44.3,86.0333,15.19,94,99,0.69,1613084787
Saskylakh,RU,71.9167,114.0833,-14.76,86,100,2.55,1613084488
Lodja,CD,-3.4833,23.4333,72.84,89,100,3.02,1613084787
Erenhot,CN,43.6475,111.9767,15.49,83,0,2.86,1613084788
Kutno,PL,52.2306,19.3641,8.01,85,20,4.61,1613084788
Hilo,US,19.7297,-155.09,73.4,73,75,9.22,1613084340
Rawalpindi,PK,33.6007,73.0679,53.01,68,6,1.01,1613084788
Bambous Virieux,MU,-20.3428,57.7575,78.8,78,75,8.05,1613084107
Vaini,TO,-21.2,-175.2,84.2,84,75,9.22,1613084431
Kudahuvadhoo,MV,2.6708,72.8944,80.35,79,42,17.2,1613084491
Leningradskiy,RU,69.3833,178.4167,-15.66,87,100,11.36,1613084473
Kamskiye Polyany,RU,55.4307,51.4171,3.2,78,90,8.95,1613084789
Talnakh,RU,69.4865,88.3972,-14.62,88,95,2.48,1613084491
Constitución,CL,-35.3333,-72.4167,62.33,83,55,6.87,1613084426
East Saint Louis,US,38.6245,-90.1509,23.0,73,90,12.66,1613084789
Port Hawkesbury,CA,45.6169,-61.3485,17.6,49,75,13.8,1613084789
Ribeira Grande,PT,38.5167,-28.7,61.77,78,99,35.59,1613084396
Mgandu,TZ,-5.95,34.1333,59.7,100,92,3.27,1613084789
Bengkulu,ID,-3.8004,102.2655,76.14,85,100,4.76,1613084461
Butaritari,KI,3.0707,172.7902,81.88,77,70,14.97,1613084387
Loudi,CN,27.7344,111.9944,48.38,93,0,0.83,1613084790
Vorukh,TJ,39.8494,70.5838,36.36,64,0,8.32,1613084790
Banda Aceh,ID,5.5577,95.3222,78.51,77,23,3.67,1613084790
Aklavik,CA,68.2191,-135.0107,-16.6,69,20,11.5,1613084514
Makakilo City,US,21.3469,-158.0858,78.8,47,1,9.22,1613084502
Tuatapere,NZ,-46.1333,167.6833,57.99,74,0,8.01,1613084432
Novovorontsovka,UA,47.5004,33.9175,44.94,92,100,16.17,1613084790
North Bend,US,43.4065,-124.2243,50.0,93,90,3.22,1613084739
Zhangjiakou Shi Xuanhua Qu,CN,40.6103,115.0447,32.41,74,0,3.51,1613084791
San Patricio,US,28.017,-97.5169,41.0,93,90,13.8,1613084476
Vidim,RU,56.4088,103.1106,-14.6,88,90,3.29,1613084791
Pombas,CV,17.1503,-25.0201,69.8,78,40,29.93,1613084791
Narsaq,GL,60.9167,-46.05,37.4,28,75,37.98,1613084465
Hualmay,PE,-11.0964,-77.6139,75.92,67,61,9.98,1613084471
Atar,MR,20.5169,-13.0499,67.44,20,0,8.46,1613084531
Snina,SK,48.9886,22.151,8.01,86,100,11.32,1613084792
Pochutla,MX,15.7432,-96.4661,87.8,42,1,16.11,1613084535
Palmerston,AU,-12.486,130.9833,87.01,79,75,9.22,1613084792
Saint Paul Harbor,US,57.79,-152.4072,37.4,87,90,37.98,1613084472
Viseu,PT,40.661,-7.9097,55.99,93,100,10.0,1613084666
Pozo Colorado,PY,-23.4923,-58.7972,78.49,54,78,2.71,1613084792
Taltal,CL,-25.4,-70.4833,70.0,63,0,4.74,1613084792
Innisfail,AU,-17.5333,146.0333,81.54,79,69,3.33,1613084792
Mount Isa,AU,-20.7333,139.5,84.2,65,88,11.5,1613084462
Piritiba,BR,-11.7303,-40.5553,74.95,60,19,8.7,1613084793
Saint George,US,37.1041,-113.5841,66.0,24,1,13.8,1613084479
Saldanha,ZA,-33.0117,17.9442,64.4,88,1,10.36,1613084419
Comodoro Rivadavia,AR,-45.8667,-67.5,86.0,21,0,17.27,1613084793
Coyhaique,CL,-45.5752,-72.0662,66.2,37,20,10.36,1613084546
Praia da Vitória,PT,38.7333,-27.0667,62.6,88,40,33.15,1613084390
Jiayuguan City,CN,39.8167,98.3,32.34,75,100,9.51,1613084793
Kiruna,SE,67.8557,20.2251,12.2,85,20,8.05,1613084794
Banjar,ID,-8.19,114.9675,77.0,94,75,2.3,1613084794
Nouakchott,MR,18.0858,-15.9785,73.4,10,0,13.8,1613084794
Itacaré,BR,-14.2775,-38.9967,80.6,78,20,6.91,1613084794
Chokurdakh,RU,70.6333,147.9167,-18.54,81,70,4.29,1613084391
Muros,ES,42.7762,-9.0603,55.99,91,100,15.01,1613084393
Isangel,VU,-19.55,169.2667,84.2,74,40,3.44,1613084794
Port Townsend,US,48.117,-122.7605,32.0,59,75,10.36,1613084486
Healdsburg,US,38.6105,-122.8692,53.01,93,90,4.61,1613084795
Qaanaaq,GL,77.484,-69.3632,9.7,68,0,9.24,1613084400
Imeni Babushkina,RU,59.7573,43.1285,-1.32,92,99,3.74,1613084795
Tual,ID,-5.6667,132.75,83.66,77,100,11.52,1613084408
Eyl,SO,7.9803,49.8164,71.2,76,52,11.32,1613084520
Huambo,AO,-12.7761,15.7392,58.5,68,82,4.65,1613084795
Luanda,AO,-8.8368,13.2343,80.6,78,0,4.61,1613084175
Yangi Marg`ilon,UZ,40.4272,71.7189,46.4,57,0,6.91,1613084515
Budeşti,RO,44.2347,26.4658,34.0,90,100,1.01,1613084796
Norden,DE,53.6,7.2,21.0,75,52,1.99,1613084796
Bereda,ES,43.2686,-7.5406,53.01,99,100,5.99,1613084546
Morwell,AU,-38.2333,146.4,62.01,88,97,4.0,1613084796
Cabo San Lucas,MX,22.8909,-109.9124,73.4,60,20,10.36,1613084332
Praia,CV,14.9215,-23.5087,69.8,73,0,13.8,1613084485
Kumul,CN,42.8,93.45,30.2,77,72,8.48,1613084492
Chake Chake,TZ,-5.2459,39.7666,79.34,77,99,8.03,1613084796
Vestmannaeyjar,IS,63.4427,-20.2734,41.09,74,100,35.63,1613084446
Twin Falls,US,42.3505,-114.6445,42.8,52,90,4.61,1613084775
Ketchikan,US,55.3422,-131.6461,23.0,33,1,17.27,1613084545
Panzhihua,CN,26.5851,101.7128,43.0,74,0,1.23,1613084797
Chalmette,US,29.9427,-89.9634,66.0,94,90,6.91,1613084604
Santa Maria,BR,-29.6842,-53.8069,68.0,100,75,4.61,1613084498
Kamenka,RU,51.3223,42.7678,26.01,96,62,4.76,1613084797
Mergen,CN,49.1833,125.2167,16.07,92,33,14.56,1613084797
Mawlaik,MM,23.6333,94.4167,57.18,59,33,0.34,1613084798
Burnie,AU,-41.0667,145.9167,61.0,85,74,5.01,1613084798
Katsuura,JP,35.1333,140.3,44.01,56,0,9.22,1613084427
Lagoa,PT,39.05,-27.9833,59.95,83,100,34.74,1613084545
Makkah al Mukarramah,SA,21.4267,39.8261,74.55,59,0,2.93,1613084798
Luau,AO,-10.7073,22.2247,65.8,99,100,3.29,1613084650
Vicksburg,US,32.3526,-90.8779,35.6,100,90,9.22,1613084652
Margate,GB,51.3813,1.3862,33.01,62,42,5.99,1613084536
Silifke,TR,36.3778,33.9344,57.51,74,19,5.66,1613084799
Māngrol,IN,21.1167,70.1167,68.68,43,19,6.91,1613084799
Santa Isabel Rio Negro,BR,-0.4139,-65.0192,80.74,71,99,1.86,1613084542
Hudson Bay,CA,52.85,-102.3842,-22.49,83,100,10.6,1613084799
Kingman,US,35.1894,-114.053,66.2,22,1,8.05,1613084485
Cidreira,BR,-30.1811,-50.2056,74.59,82,85,12.62,1613084526
Roebourne,AU,-20.7833,117.1333,81.84,72,25,10.58,1613084800
Batemans Bay,AU,-35.7167,150.1833,69.01,93,80,4.68,1613084800
Lorengau,PG,-2.0226,147.2712,83.07,75,94,6.06,1613084477
Alcalá,CO,4.6747,-75.7825,77.0,65,40,6.91,1613084800
Severo-Kuril'sk,RU,50.6789,156.125,29.75,91,100,7.38,1613084390
Kysyl-Syr,RU,63.8986,122.7617,-15.39,88,100,1.43,1613084386
Deputatsky,RU,69.3,139.9,-6.66,81,100,2.01,1613084472
Kathu,TH,7.9178,98.3332,84.99,83,40,5.75,1613084801
Thunder Bay,CA,48.4001,-89.3168,-0.4,38,75,5.75,1613084643
Narón,ES,43.5167,-8.1528,55.99,100,75,3.44,1613084801
Udachny,RU,66.4167,112.4,-23.57,85,37,2.82,1613084801
Sioux Lookout,CA,50.1001,-91.917,-14.8,53,90,4.61,1613084430
Taoudenni,ML,22.6783,-3.9836,69.33,18,0,11.65,1613084540
Progreso,MX,21.2833,-89.6667,89.01,48,40,11.5,1613084801
Talcahuano,CL,-36.7167,-73.1167,66.2,77,75,4.61,1613084549
Qiongshan,CN,20.0058,110.3542,57.2,100,75,6.71,1613084801
Bandarbeyla,SO,9.4942,50.8122,73.17,74,88,13.11,1613084521
Ahipara,NZ,-35.1667,173.1667,68.45,52,5,9.51,1613084533
Taksimo,RU,56.3444,114.8794,-1.26,86,100,3.89,1613084565
College,US,64.8569,-147.8028,12.2,67,75,1.63,1613084497
Kawalu,ID,-7.3817,108.2082,72.25,90,93,1.3,1613084802
Evans,US,33.5337,-82.1307,66.2,88,90,4.61,1613084645
Ormara,PK,25.2088,64.6357,71.33,51,0,6.08,1613084802
Abilene,US,32.4487,-99.7331,26.6,80,90,9.22,1613084545
Ometepec,MX,16.6833,-98.4167,83.44,46,0,8.57,1613084802
Christchurch,NZ,-43.5333,172.6333,61.0,63,75,8.05,1613084432
Korla,CN,41.7597,86.1469,31.17,85,95,2.73,1613084463
Hermiston,US,45.8404,-119.2895,28.4,50,90,11.5,1613084803
Songea,TZ,-10.6833,35.65,64.9,100,100,3.65,1613084803
Terney,RU,45.0503,136.6092,23.61,86,96,3.18,1613084803
Haines Junction,CA,60.7522,-137.5108,-9.4,45,11,2.3,1613084528
San Cristobal,VE,7.7669,-72.225,84.2,54,40,9.22,1613084480
Arlit,NE,18.7369,7.3853,72.3,17,0,5.39,1613084541
Flin Flon,CA,54.7682,-101.865,-18.4,63,75,9.22,1613084804
Pervoye Maya,RU,56.164,44.7196,10.4,79,75,4.47,1613084804
Bethel,US,41.3712,-73.414,26.6,50,1,12.66,1613084389
Carutapera,BR,-1.195,-46.02,79.43,83,100,7.29,1613084513
Vozrozhdeniye,RU,44.5503,38.2136,48.0,76,100,6.02,1613084804
Sabla,NG,12.7525,4.7077,75.34,17,0,8.9,1613084804
Nanortalik,GL,60.1432,-45.2371,28.38,88,100,13.58,1613084427
Aswān,EG,24.0934,32.907,70.66,37,85,9.24,1613084805
Hasaki,JP,35.7333,140.8333,35.6,80,75,6.91,1613084450
Calvinia,ZA,-31.4707,19.776,70.99,56,100,1.99,1613084805
Calabozo,VE,8.9242,-67.4293,85.82,32,19,5.55,1613084805
Tuktoyaktuk,CA,69.4541,-133.0374,-7.6,77,40,16.11,1613084442
Shimoda,JP,34.6667,138.95,39.99,77,100,10.13,1613084592
Jalu,LY,29.0331,21.5482,56.59,56,0,10.09,1613084426
Csány,HU,47.6483,19.8297,19.99,63,0,13.8,1613084805
Ponta do Sol,PT,32.6667,-17.1,57.99,68,70,3.0,1613084421
Port Keats,AU,-14.25,129.55,83.64,79,100,7.31,1613084806
Ngunguru,NZ,-35.6167,174.5,73.99,53,1,5.99,1613084806
Lucea,JM,18.451,-78.1736,80.6,78,75,16.11,1613084542
Abaza,RU,52.655,90.0928,-14.55,82,83,1.79,1613084465
Silao,MX,20.9333,-101.4333,75.2,10,1,17.27,1613084806
Namtsy,RU,62.7161,129.6658,-20.2,76,0,2.24,1613084806
Paamiut,GL,61.994,-49.6678,26.46,85,68,9.08,1613084588
Varhaug,NO,58.6147,5.6457,15.01,57,0,2.3,1613084806
Carndonagh,IE,55.25,-7.2667,34.09,83,100,23.44,1613084806
Yulara,AU,-25.2406,130.9889,77.0,94,90,9.22,1613084532
Termoli,IT,41.9888,14.9895,42.01,76,100,5.99,1613084807
Bollnäs,SE,61.3482,16.3946,9.0,59,44,1.99,1613084807
Kavaratti,IN,10.5669,72.642,81.1,56,21,5.95,1613084464
Port Blair,IN,11.6667,92.75,77.5,72,25,8.28,1613084807
Hay River,CA,60.8156,-115.7999,-4.0,71,78,17.27,1613084689
Görele,TR,41.0308,39.0031,57.2,44,0,3.44,1613084808
Khandyga,RU,62.6667,135.6,2.44,87,15,3.91,1613084808
Negombo,LK,7.2083,79.8358,71.6,78,0,4.61,1613084761
Mayskiy,RU,47.6931,40.1025,44.6,93,20,15.66,1613084808
Vao,NC,-22.6667,167.4833,76.57,81,8,10.89,1613084430
Northam,GB,51.0333,-4.2167,37.99,77,100,8.01,1613084808
Sistranda,NO,63.7256,8.834,23.0,80,0,4.61,1613084531
Torbay,CA,47.6666,-52.7314,23.0,93,90,36.82,1613084515
Bereket,TM,39.2446,55.5154,47.08,70,100,2.84,1613084451
Dicabisagan,PH,17.0818,122.4157,75.04,86,46,3.67,1613084809
Iqaluit,CA,63.7506,-68.5145,-2.0,78,75,18.41,1613084487
Maţāy,EG,28.419,30.7792,57.27,36,0,8.59,1613084455
Kiryat Gat,IL,31.61,34.7642,54.0,82,0,3.78,1613084241
Hokitika,NZ,-42.7167,170.9667,59.81,67,6,5.5,1613084549
Geraldton,AU,-28.7667,114.6,57.2,88,0,8.05,1613084415
Basco,PH,20.4487,121.9702,73.31,77,51,18.88,1613084513
Srednekolymsk,RU,67.45,153.6833,-25.73,85,20,5.1,1613084450
Beloha,MG,-25.1667,45.05,74.64,80,93,7.83,1613084495
Xichang,CN,27.8964,102.2634,43.11,76,91,1.59,1613084810
Sept-Îles,CA,50.2001,-66.3821,17.01,92,90,2.3,1613084427
Edson,CA,53.5835,-116.4356,-9.4,54,20,13.8,1613084810
Padang,ID,-0.9492,100.3543,73.4,88,40,2.3,1613084471
Verkhoyansk,RU,67.5447,133.385,-17.41,82,60,1.59,1613084811
São Filipe,CV,14.8961,-24.4956,72.21,67,1,9.86,1613084544
Ahtopol,BG,42.1,27.95,37.4,87,90,20.71,1613084811
Aykhal,RU,66.0,111.5,-23.42,84,5,4.23,1613084469
Kattivākkam,IN,13.2167,80.3167,68.0,83,40,0.36,1613084504
Otavi,NA,-19.65,17.3333,65.3,93,100,4.03,1613084811
Tynda,RU,55.1667,124.7167,14.52,95,100,11.97,1613084811
Noumea,NC,-22.2763,166.4572,82.99,69,20,6.91,1613084518
Gouyave,GD,12.1646,-61.7296,78.8,73,20,20.71,1613084812
Kalisz,PL,51.7611,18.091,7.0,87,73,4.0,1613084812
Vieques,PR,18.425,-65.8329,77.0,78,40,5.75,1613084812
Manado,ID,1.487,124.8455,77.0,94,20,2.3,1613084812
Ancud,CL,-41.8697,-73.8203,62.01,82,75,9.22,1613084394
Ahome,MX,25.9167,-109.1833,71.6,43,1,18.41,1613084812
Anju,KP,39.6178,125.6647,32.29,91,39,3.18,1613084812
Butembo,CD,0.15,29.2833,62.53,66,91,2.82,1613084813
Porto-Novo,BJ,6.4965,2.6036,86.0,84,40,12.66,1613084813
Varangaon,IN,21.0167,75.9,65.1,28,93,6.02,1613084813
Silver City,US,32.7701,-108.2803,60.8,17,1,8.05,1613084813
Sai Buri,TH,6.7013,101.6168,75.02,88,65,6.06,1613084813
Port Macquarie,AU,-31.4333,152.9167,80.01,67,75,1.01,1613084813
Mount Gambier,AU,-37.8333,140.7667,62.6,67,90,11.5,1613084318
Raduzhny,RU,62.0961,77.475,-20.87,87,100,6.69,1613084813
Thompson,CA,55.7435,-97.8558,-20.2,69,75,4.61,1613084457
Kingston,JM,17.997,-76.7936,80.6,57,75,19.57,1613084607
Marabba,SD,12.35,32.1833,75.13,20,1,7.9,1613084814
Sakhipur,BD,24.3,90.1833,71.6,73,40,2.06,1613084523
Honiara,SB,-9.4333,159.95,78.84,85,100,6.58,1613084814
Waingapu,ID,-9.6567,120.2641,78.94,78,24,4.36,1613084475
Pangkalanbuun,ID,-2.6833,111.6167,74.26,95,100,2.37,1613084814
Kiama,AU,-34.6833,150.8667,71.01,78,0,11.34,1613084814
Cacaopera,SV,13.7667,-88.0833,69.8,56,75,3.51,1613084815
Biak,ID,-0.9131,122.8766,78.64,77,96,3.0,1613084815
Mabaruma,GY,8.2,-59.7833,72.09,96,71,3.6,1613084454
Mahon,ES,39.8885,4.2658,50.0,93,0,3.44,1613084815
Kolondiéba,ML,11.0882,-6.8926,77.07,18,13,1.21,1613084815
Ust-Tsilma,RU,65.441,52.1498,-12.51,89,93,1.57,1613084815
Detchino,RU,54.8092,36.3075,8.6,85,100,6.71,1613084815
Mórrope,PE,-6.5417,-80.0111,78.8,61,0,17.27,1613084816
Puerto Baquerizo Moreno,EC,-0.9,-89.6,80.6,89,75,6.91,1613084423
Tilichiki,RU,60.4667,166.1,-19.95,83,0,11.79,1613084454
Meulaboh,ID,4.1363,96.1285,77.04,87,45,4.81,1613084508
Ibiapina,BR,-3.9233,-40.8894,68.27,100,98,3.96,1613084816
Gorontalo,ID,0.5412,123.0595,77.58,86,34,3.06,1613084816
Airai,TL,-8.9266,125.4092,64.9,97,94,1.1,1613084428
Labuan,MY,5.2767,115.2417,77.0,94,20,4.14,1613084816
Kahului,US,20.8947,-156.47,80.6,50,20,14.97,1613084304
Grindavik,IS,63.8424,-22.4338,37.4,81,75,17.27,1613084500
Flagstaff,US,35.1981,-111.6513,55.99,34,1,10.36,1613084817
Touros,BR,-5.1989,-35.4608,80.6,78,40,10.36,1613084397
Tawang Town,IN,27.5833,91.8667,32.74,84,0,2.73,1613084539
Puerto Escondido,MX,15.85,-97.0667,86.0,70,20,6.91,1613084817
Djambala,CG,-2.5447,14.7533,71.15,86,36,3.83,1613084530
Caravelas,BR,-17.7125,-39.2481,76.35,81,95,5.55,1613084818
Daytona Beach,US,29.2108,-81.0228,73.99,78,40,14.88,1613084584
Matamoros,MX,25.5333,-103.25,80.6,10,20,8.52,1613084818
Joshīmath,IN,30.5667,79.5667,45.81,36,55,6.42,1613084818
Katete,UG,-0.7818,29.7544,66.69,64,100,3.62,1613084818
Pemangkat,ID,1.1667,108.9667,75.79,91,100,8.34,1613084818
Faya,SA,18.3851,42.4509,53.6,71,0,4.61,1613084478
Sinjār,IQ,36.3209,41.8754,51.28,64,0,2.3,1613084819
Carnot,CF,4.9409,15.8665,72.23,22,3,3.44,1613084715
Kedrovyy,RU,56.1667,91.8167,-11.2,70,0,6.71,1613084819
Ridgecrest,US,35.6225,-117.6709,69.8,26,75,5.75,1613084687
Sinnamary,GF,5.3833,-52.95,78.04,84,99,13.85,1613084819
San Vicente,AR,-26.6167,-54.1333,64.83,100,61,1.72,1613084819
Clyde River,CA,70.4692,-68.5914,6.8,92,45,31.07,1613084394
Olafsvik,IS,64.8945,-23.7142,38.35,76,100,17.49,1613084506
Vardø,NO,70.3705,31.1107,15.8,79,75,5.75,1613084534
Kanel,SN,15.4916,-13.1763,82.4,24,0,2.3,1613084820
Russell,US,32.3502,-85.1999,66.2,94,90,2.39,1613084820
Kapuskasing,CA,49.4169,-82.4331,-4.0,45,100,4.61,1613084752
Puerto Nariño,CO,-3.7703,-70.3831,80.6,89,75,13.8,1613084820
Kalmunai,LK,7.4167,81.8167,71.35,81,96,8.46,1613084820
Pontianak,ID,-0.0333,109.3333,75.2,94,20,2.84,1613084820
Kamphaeng Phet,TH,16.25,99.5,68.5,45,99,1.9,1613084820
Marsá Maţrūḩ,EG,31.3525,27.2453,53.6,62,0,8.05,1613084821
Kāzerūn,IR,29.6195,51.6541,54.5,41,0,1.28,1613084821
Chīpurupalle,IN,18.3,83.5667,64.06,88,57,2.73,1613084821
Berdigestyakh,RU,62.0989,126.6992,-7.01,91,100,2.08,1613084821
Bose,IT,45.4612,8.0137,43.0,65,31,1.99,1613084822
Pomabamba,PE,-8.8333,-77.4667,57.94,62,96,5.86,1613084822
Avera,US,33.194,-82.5271,68.0,88,75,3.44,1613084539
Glendive,US,47.1053,-104.7125,-9.99,53,90,17.27,1613084822
Manoel Urbano,BR,-8.8389,-69.2597,73.92,97,100,2.89,1613084822
Portland,US,45.5234,-122.6762,34.0,78,100,3.0,1613084475
Nicoya,CR,10.1483,-85.452,89.6,43,0,14.97,1613084394
Acapulco de Juárez,MX,16.8634,-99.8901,82.4,65,1,9.22,1613084779
Spearfish,US,44.4908,-103.8594,-8.0,70,1,11.5,1613084652
Pevek,RU,69.7008,170.3133,-22.54,86,38,1.12,1613084435
Puerto Carreño,CO,6.189,-67.4859,88.63,41,83,11.68,1613084823
Porto Empedocle,IT,37.2934,13.5264,48.99,89,74,10.69,1613084823
Along,IN,28.1667,94.7667,50.9,57,0,1.74,1613084388
Keflavik,IS,64.0049,-22.5624,37.4,81,75,17.27,1613084824
Khāsh,IR,28.2211,61.2158,47.07,44,68,0.85,1613084824
Benguela,AO,-12.5763,13.4055,74.34,82,99,5.03,1613084824
Kundiawa,PG,-6.0167,144.9667,65.1,77,100,0.69,1613084824
Vila Franca do Campo,PT,37.7167,-25.4333,61.0,88,40,21.85,1613084508
Manama,BH,26.2154,50.5832,66.2,77,0,9.22,1613084824
Bilma,NE,18.6853,12.9164,70.11,19,0,7.0,1613084505
Palmas,BR,-10.2128,-48.3603,80.6,83,40,6.91,1613084825
Tete,MZ,-16.1564,33.5867,84.2,74,40,3.44,1613084825
San Andrés,CO,12.5847,-81.7006,84.2,65,20,11.5,1613084825
Cortez,US,37.3489,-108.5859,51.8,30,1,12.66,1613084825
Santo Antônio do Içá,BR,-3.1022,-67.9397,81.64,70,66,2.73,1613084825
Orotukan,RU,62.2667,151.7,-5.76,88,14,0.89,1613084825
Iquitos,PE,-3.7481,-73.2472,77.0,83,75,14.97,1613084825
Villa María,AR,-32.4075,-63.2402,73.0,81,45,1.01,1613084826
Mossamedes,AO,-15.1961,12.1522,73.87,76,42,1.03,1613084430
Van,TR,38.4924,43.3831,32.0,93,75,3.44,1613084826
La Rioja,ES,42.25,-2.5,46.4,93,0,3.44,1613084826
Tautira,PF,-17.7333,-149.15,86.0,54,75,4.61,1613084454
Troitskoye,RU,52.9821,84.6757,-20.6,83,1,3.87,1613084826
Micheweni,TZ,-4.9667,39.8333,80.74,77,100,11.61,1613084826
Lázaro Cárdenas,MX,17.9583,-102.2,78.93,68,7,10.85,1613084663
Salalah,OM,17.0151,54.0924,71.6,53,0,3.44,1613084482
Zhuhai,CN,22.2769,113.5678,59.0,77,20,10.36,1613084678
Great Yarmouth,GB,52.6083,1.7305,33.01,93,19,5.75,1613084827
Neuquén,AR,-38.9516,-68.0591,86.0,45,0,5.75,1613084827
Ishurdi,BD,24.1333,89.0833,61.07,50,60,5.01,1613084828
Ko Samui,TH,9.5357,99.9357,80.22,78,67,8.08,1613084828
Sitka,US,57.0531,-135.33,30.2,34,1,8.05,1613084429
Bad Fallingbostel,DE,52.8667,9.7,18.0,92,40,1.14,1613084828
Santa Barbara,US,34.7333,-120.0343,63.0,67,1,9.22,1613084828
Río Tercero,AR,-32.173,-64.1141,68.0,96,63,4.16,1613084828
Majene,ID,-3.5403,118.9707,78.78,84,91,3.18,1613084828
Pyatovskiy,RU,54.6891,36.0563,8.6,85,100,6.71,1613084829
Ambulu,ID,-8.345,113.6058,75.99,88,100,2.55,1613084829
Kafue,ZM,-15.7691,28.1814,68.0,100,0,3.44,1613084829
Ocampo,MX,21.65,-101.5,66.49,22,0,16.4,1613084829
Alofi,NU,-19.0595,-169.9187,86.0,70,75,12.66,1613084392
Bristol,US,41.8334,-71.1662,28.0,56,100,1.99,1613084735
Egvekinot,RU,66.3167,-179.1667,-20.92,84,0,8.86,1613084543
Havøysund,NO,70.9963,24.6622,26.6,74,20,4.61,1613084549
Bariloche,AR,-41.1456,-71.3082,73.4,33,40,20.71,1613084830
Mwene-Ditu,CD,-7.0,23.45,68.54,94,100,2.51,1613084830
Brixen,IT,46.715,11.656,33.8,37,0,4.61,1613084830
Znamenskoye,RU,57.1281,73.8282,-26.16,86,17,4.25,1613084830
Lingdong,CN,46.5669,131.1453,18.72,94,100,4.52,1613084830
Oudtshoorn,ZA,-33.5907,22.2014,71.6,100,75,6.91,1613084831
Gushikawa,JP,26.3544,127.8686,66.2,82,75,26.46,1613084831
Tigil',RU,57.8,158.6667,5.4,89,2,3.56,1613084831
Cruzeiro do Sul,BR,-29.5128,-51.9853,72.0,94,100,1.01,1613084831
Rocha,UY,-34.4833,-54.3333,68.56,91,100,10.51,1613084831
Serenje,ZM,-13.2325,30.2352,63.97,97,100,4.9,1613084832
Antalaha,MG,-14.9003,50.2788,75.56,88,99,4.21,1613084832
Pokhara,NP,28.2333,83.9833,54.95,49,65,2.84,1613084535
Khor,RU,47.8861,134.9464,11.37,93,100,8.9,1613084475
Staritsa,RU,56.5075,34.9354,0.91,92,100,7.47,1613084543
Samarai,PG,-10.6167,150.6667,83.82,68,56,4.88,1613084832
Soe,ID,-9.8607,124.284,70.29,90,52,2.44,1613084832
Seoul,KR,37.5683,126.9778,30.2,93,75,3.44,1613084404
Brighton,GB,50.8284,-0.1395,33.01,82,74,5.99,1613084833
Alta Floresta,BR,-9.8756,-56.0861,74.39,94,100,2.35,1613084541
Yenotayevka,RU,47.2456,47.0281,40.75,95,85,3.83,1613084833
Fairbanks,US,64.8378,-147.7164,17.01,73,75,1.81,1613084833
Arrondissement de Dieppe,FR,49.75,1.1667,30.0,69,99,1.01,1613084833
Lüderitz,NA,-26.6481,15.1594,66.65,82,28,3.74,1613084522
Severo-Yeniseyskiy,RU,60.3725,93.0408,-18.24,88,100,8.32,1613084834
Kloulklubed,PW,7.0419,134.2556,82.4,83,75,6.91,1613084530
Taitung City,TW,22.7583,121.1444,64.4,94,75,5.75,1613084834
Viedma,AR,-40.8135,-62.9967,77.0,55,0,1.01,1613084448
Arrondissement de Marseille,FR,43.3333,5.5,42.01,60,0,5.75,1613084834
Nome,US,64.5011,-165.4064,10.4,72,90,20.71,1613084496
Plátanos,GR,37.6667,21.6167,55.4,76,12,4.61,1613084834
Handan,CN,36.6006,114.4678,45.52,57,0,3.83,1613084834
Lavrentiya,RU,65.5833,-171.0,-21.6,81,0,12.5,1613084464
Manadhoo,MV,5.7667,73.3833,79.75,67,10,8.55,1613084835
Zambezi,ZM,-13.5432,23.1047,65.07,96,97,2.8,1613084835
La Asuncion,VE,11.0333,-63.8628,76.06,82,82,17.45,1613084695
Zhezkazgan,KZ,47.8043,67.7144,6.98,89,100,5.95,1613084835
Flinders,AU,-34.5833,150.8552,71.01,78,0,9.84,1613084835
Thinadhoo,MV,0.5333,72.9333,80.91,77,31,15.17,1613084836
São Domingos,BR,-13.3983,-46.3183,72.61,85,97,5.48,1613084836
Wencheng,CN,33.0559,113.7978,48.22,66,0,3.42,1613084836
Kasempa,ZM,-13.4584,25.8338,64.17,92,100,3.74,1613084836
Kenai,US,60.5544,-151.2583,30.99,74,75,21.85,1613084522
Auki,SB,-8.7676,160.7034,81.48,83,100,9.75,1613084836
Mayo,US,38.8876,-76.5119,34.0,80,90,6.91,1613084396
Yar-Sale,RU,66.8333,70.8333,-18.94,87,90,8.39,1613084390
Tinskoy,RU,56.1525,96.9161,-13.27,86,89,6.98,1613084837
Tucumcari,US,35.1717,-103.725,53.6,35,1,8.05,1613084837
Ouadda,CF,8.0777,22.4007,69.91,23,13,4.56,1613084473
Conceição do Araguaia,BR,-8.2578,-49.2647,78.49,78,75,2.19,1613084837
Tura,IN,25.5198,90.2201,59.52,49,0,2.26,1613084479
Yeppoon,AU,-23.1333,150.7333,78.8,61,75,4.61,1613084837
Hargeisa,SO,9.56,44.065,59.34,62,61,8.75,1613084837
Mineros,BO,-17.1167,-63.2333,69.8,88,90,8.05,1613084838
Lompoc,US,34.6391,-120.4579,60.8,63,1,16.11,1613084395
Japura,ID,-0.3167,102.35,73.0,97,47,1.92,1613084472
Beringovskiy,RU,63.05,179.3167,-22.41,84,59,18.39,1613084455
Nador,MA,35.174,-2.9287,60.8,67,0,5.75,1613084838
Ixtapa,MX,20.7,-105.2,73.4,68,75,12.66,1613084838
Trairi,BR,-3.2778,-39.2689,80.22,81,85,10.65,1613084838
Olavarría,AR,-36.8927,-60.3225,70.0,84,90,8.01,1613084839
Harper,LR,4.375,-7.7169,79.14,88,95,6.15,1613084839
Chumikan,RU,54.7183,135.315,9.64,95,100,9.4,1613084839
Posadas,AR,-27.3671,-55.8961,80.6,57,0,3.44,1613084839
Hobyo,SO,5.3505,48.5268,77.14,74,100,18.75,1613084501
Prabumulih,ID,-3.45,104.25,73.38,99,100,2.98,1613084839
Bilibino,RU,68.0546,166.4372,-18.9,73,0,4.63,1613084840
Altay,CN,47.8667,88.1167,9.55,90,100,0.76,1613084840
Horizontina,BR,-27.6258,-54.3078,73.99,82,38,4.72,1613084840
Kashan,IR,33.9831,51.4364,52.14,41,0,0.69,1613084840
Naze,JP,28.3667,129.4833,60.8,88,75,26.46,1613084545
Biltine,TD,14.5333,20.9167,69.62,26,0,7.14,1613084520
Port-Cartier,CA,50.0334,-66.8654,17.01,92,90,2.3,1613084840
Gaoual,GN,11.75,-13.2,79.07,26,61,5.06,1613084840
Kailua,US,21.4022,-157.7394,80.6,53,40,6.91,1613084840
Tanout,NE,14.9709,8.8879,69.35,20,0,10.07,1613084841
Nelson Bay,AU,-32.7167,152.15,73.99,73,0,6.91,1613084434
Hørve,DK,55.7529,11.453,19.0,76,30,5.99,1613084841
Waddān,LY,29.1614,16.139,56.25,71,0,6.22,1613084841
Valparaíso,CL,-33.0393,-71.6273,66.2,82,90,2.3,1613084841
Brae,GB,60.3964,-1.353,34.36,88,88,22.88,1613084842
Volksrust,ZA,-27.3654,29.8818,54.95,96,14,2.51,1613084842
Oleśnica,PL,51.2134,17.3899,16.0,79,75,8.05,1613084842
Hurghada,EG,27.2574,33.8129,60.8,41,0,2.3,1613084842
Nowy Dwór Mazowiecki,PL,52.4302,20.7165,10.0,78,75,9.22,1613084842
Roald,NO,62.5833,6.1333,24.8,50,0,12.66,1613084842
Santa Luzia,BR,-19.7697,-43.8514,73.4,83,75,6.91,1613084842
Kirkland Lake,CA,48.1446,-80.0377,-2.2,46,88,4.97,1613084842
Nizwá,OM,22.9333,57.5333,58.33,48,2,1.66,1613084843
Pittsburg,US,38.028,-121.8847,59.0,58,90,11.5,1613084834
Buckeye,US,33.3703,-112.5838,77.0,21,1,3.24,1613084772
San Jerónimo,PE,-11.9472,-75.2829,56.86,64,42,6.04,1613084843
Marquette,US,46.5333,-87.6335,10.0,52,96,4.0,1613084397
Bač,RS,45.3919,19.2367,27.0,68,0,11.5,1613084843
Simao,CN,22.7886,100.9748,47.89,93,0,1.77,1613084843
Peringat,MY,6.0333,102.2833,78.8,83,20,3.44,1613084649
Ngorongoro,TZ,-3.2397,35.4875,53.49,97,100,3.06,1613084844
Olinda,BR,-8.0089,-34.8553,80.6,65,40,11.5,1613084844
Limpapa,PH,7.1197,121.9106,75.2,94,40,1.14,1613084844
Husavik,IS,66.0449,-17.3389,21.2,86,0,5.75,1613084844
Kingsville,US,27.5159,-97.8561,41.0,93,90,14.97,1613084844
Katima Mulilo,NA,-17.5,24.2667,66.63,96,100,5.66,1613084844
Birao,CF,10.2849,22.7882,72.1,20,65,4.54,1613084509
Ostrovnoy,RU,68.0531,39.5131,10.38,93,100,6.49,1613084400
Walvis Bay,NA,-22.9575,14.5053,70.0,83,34,5.75,1613084516
Shingū,JP,33.7333,135.9833,50.0,53,0,9.22,1613084388
Nizhniy Kuranakh,RU,58.8353,125.4869,-2.27,91,100,3.04,1613084845
Muzhi,RU,65.3667,64.6667,-23.42,83,60,1.07,1613084845
Arrondissement de Langres,FR,47.8333,5.3333,23.0,74,0,8.05,1613084845
Palmer,US,42.1584,-72.3287,26.01,50,75,8.05,1613084538
Ust-Nera,RU,64.5667,143.2,3.42,82,100,0.65,1613084846
Port Montt,CL,-41.4698,-72.9447,62.6,82,75,12.66,1613084846
Gali,GE,42.6265,41.7381,54.19,43,60,6.93,1613084846
Tshikapa,CD,-6.4167,20.8,72.57,87,100,1.95,1613084846
Khem Karan,IN,31.1428,74.5667,51.8,100,90,1.52,1613084846
Zhigansk,RU,66.7697,123.3711,-14.46,90,81,1.66,1613084547
Levice,SK,48.2156,18.6071,19.0,67,0,17.0,1613084846
Sterling,US,39.0062,-77.4286,32.0,80,90,9.22,1613084470
Derzhavīnsk,KZ,51.1,66.3167,6.78,95,90,4.43,1613084847
Grand Gaube,MU,-20.0064,57.6608,78.01,74,98,5.01,1613084847
Ciudad Gustavo Díaz Ordaz,MX,26.2333,-98.5833,53.01,93,90,14.97,1613084847
Richards Bay,ZA,-28.783,32.0377,74.43,92,30,2.39,1613084496
Saint-Honoré,CA,48.5334,-71.0824,5.0,85,100,17.27,1613084847
Namuac,PH,18.6109,121.1657,71.67,80,86,9.15,1613084847
Nové Město na Moravě,CZ,49.5614,16.0742,14.0,65,11,3.0,1613084848
High Rock,BS,26.6208,-78.2833,77.0,78,75,8.05,1613084848
Curvelo,BR,-18.7564,-44.4308,73.2,81,68,5.08,1613084848
Riyadh,SA,24.6877,46.7219,59.0,41,0,5.75,1613084227
Casas Grandes,MX,30.3667,-107.95,64.99,14,0,8.01,1613084848
Puro,PH,12.4841,123.3827,78.71,79,3,1.25,1613084848
Chengde,CN,40.9725,117.9361,30.97,90,0,4.18,1613084848
Ohangaron,UZ,40.9064,69.6383,46.4,71,0,4.61,1613084848
Chennai,IN,13.0878,80.2785,68.0,83,40,0.69,1613084697
Vygonichi,RU,53.0985,34.0673,10.62,96,100,14.72,1613084849
Soyo,AO,-6.1349,12.3689,79.75,81,100,6.98,1613084849
Miranda,CO,3.2499,-76.2281,80.6,57,40,13.8,1613084849
San Luis,AR,-33.295,-66.3356,75.18,46,30,5.59,1613084409
China,MX,25.7,-99.2333,54.07,77,98,25.1,1613084849
Abu Kamal,SY,34.4506,40.9171,56.17,57,0,3.15,1613084467
Rio Grande,BR,-32.035,-52.0986,75.99,85,100,3.0,1613084345
Shaunavon,CA,49.6501,-108.4181,-22.0,69,100,25.32,1613084850
Paita,PE,-5.0892,-81.1144,76.26,77,74,12.95,1613084850
Usoke,TZ,-5.1667,32.35,63.5,95,78,2.33,1613084850
Leh,IN,34.1667,77.5833,6.87,68,0,1.9,1613084476
Kuching,MY,1.55,110.3333,75.2,94,40,2.39,1613084703
Laguna,US,38.421,-121.4238,59.0,67,90,6.91,1613084462
Matara,LK,5.9485,80.5353,71.96,89,89,2.04,1613084850
São Cristóvão,BR,-11.0147,-37.2064,80.6,69,20,11.5,1613084851
Tocopilla,CL,-22.092,-70.1979,71.4,62,0,4.59,1613084851
Ranau,MY,5.9538,116.6641,75.2,94,20,4.61,1613084851
Krasnyy Kut,RU,50.95,46.9667,28.54,99,98,2.84,1613084851
Libreville,GA,0.3925,9.4537,84.2,84,20,5.75,1613084851
Ambilobe,MG,-13.2,49.05,73.54,94,98,1.34,1613084851
